[
  {
    "city": "Chicago",
    "state": "IL",
    "category": "User Generated",
    "lat": 41.86983498113166,
    "lon": -87.67756225311193,
    "interview_count": 4052
  },
  {
    "city": "Los Angeles",
    "state": "CA",
    "category": "User Generated",
    "lat": 34.08984975590782,
    "lon": -118.3761524984978,
    "interview_count": 3652
  },
  {
    "city": "Chicago",
    "state": "IL",
    "category": "Signature",
    "lat": 41.86983498113166,
    "lon": -87.67756225311193,
    "interview_count": 2582
  },
  {
    "city": "Atlanta",
    "state": "GA",
    "category": "Signature",
    "lat": 33.76953504313203,
    "lon": -84.38535201533642,
    "interview_count": 2140
  },
  {
    "city": "San Diego",
    "state": "CA",
    "category": "User Generated",
    "lat": 32.795794851511275,
    "lon": -117.1466625798572,
    "interview_count": 2013
  },
  {
    "city": "New York",
    "state": "NY",
    "category": "Signature",
    "lat": 40.72838682757115,
    "lon": -73.92327837787745,
    "interview_count": 1207
  },
  {
    "city": "Miami",
    "state": "FL",
    "category": "User Generated",
    "lat": 25.781195477560136,
    "lon": -80.216173222196,
    "interview_count": 1128
  },
  {
    "city": "San Antonio",
    "state": "TX",
    "category": "User Generated",
    "lat": 29.455482770652125,
    "lon": -98.53133068271862,
    "interview_count": 1123
  },
  {
    "city": "Atlanta",
    "state": "GA",
    "category": "User Generated",
    "lat": 33.76953504313203,
    "lon": -84.38535201533642,
    "interview_count": 1109
  },
  {
    "city": "Glenview",
    "state": "IL",
    "category": "User Generated",
    "lat": 42.08343806973849,
    "lon": -87.82496956090185,
    "interview_count": 980
  },
  {
    "city": "New York",
    "state": "NY",
    "category": "User Generated",
    "lat": 40.72838682757115,
    "lon": -73.92327837787745,
    "interview_count": 954
  },
  {
    "city": "San Francisco",
    "state": "CA",
    "category": "Signature",
    "lat": 37.76889866843612,
    "lon": -122.42820390057571,
    "interview_count": 874
  },
  {
    "city": "Brooklyn",
    "state": "NY",
    "category": "User Generated",
    "lat": 40.72838682757115,
    "lon": -73.92327837787745,
    "interview_count": 837
  },
  {
    "city": "Henderson",
    "state": "NV",
    "category": "User Generated",
    "lat": 36.008073675209,
    "lon": -115.04355723767381,
    "interview_count": 829
  },
  {
    "city": "Lincoln",
    "state": "NE",
    "category": "User Generated",
    "lat": 40.82605273016595,
    "lon": -96.67336346867904,
    "interview_count": 796
  },
  {
    "city": "San Jose",
    "state": "CA",
    "category": "User Generated",
    "lat": 37.30386736988569,
    "lon": -121.84387496962856,
    "interview_count": 780
  },
  {
    "city": "Boston",
    "state": "MA",
    "category": "User Generated",
    "lat": 42.33513664489329,
    "lon": -71.08085243124081,
    "interview_count": 776
  },
  {
    "city": "San Francisco",
    "state": "CA",
    "category": "User Generated",
    "lat": 37.76889866843612,
    "lon": -122.42820390057571,
    "interview_count": 774
  },
  {
    "city": "McKinney",
    "state": "TX",
    "category": "User Generated",
    "lat": 33.18925025256252,
    "lon": -96.65615931579748,
    "interview_count": 764
  },
  {
    "city": "Memphis",
    "state": "TN",
    "category": "User Generated",
    "lat": 35.11572570794369,
    "lon": -89.9508158250476,
    "interview_count": 698
  },
  {
    "city": "Dallas",
    "state": "TX",
    "category": "User Generated",
    "lat": 32.805500089319814,
    "lon": -96.79785358194775,
    "interview_count": 676
  },
  {
    "city": "Austin",
    "state": "TX",
    "category": "User Generated",
    "lat": 30.296276341729,
    "lon": -97.75255907908898,
    "interview_count": 674
  },
  {
    "city": "Ann Arbor",
    "state": "MI",
    "category": "User Generated",
    "lat": 42.27179602087875,
    "lon": -83.74470405689112,
    "interview_count": 641
  },
  {
    "city": "Seattle",
    "state": "WA",
    "category": "User Generated",
    "lat": 47.61640785812064,
    "lon": -122.33535564217213,
    "interview_count": 636
  },
  {
    "city": "Philadelphia",
    "state": "PA",
    "category": "User Generated",
    "lat": 39.999893363728816,
    "lon": -75.1487358621867,
    "interview_count": 631
  },
  {
    "city": "Riverside",
    "state": "CA",
    "category": "User Generated",
    "lat": 33.93482332435334,
    "lon": -117.38272927927231,
    "interview_count": 629
  },
  {
    "city": "Raleigh",
    "state": "NC",
    "category": "User Generated",
    "lat": 35.82161896490375,
    "lon": -78.65127889660175,
    "interview_count": 600
  },
  {
    "city": "Tulsa",
    "state": "OK",
    "category": "User Generated",
    "lat": 36.132593369841636,
    "lon": -95.92270611305918,
    "interview_count": 582
  },
  {
    "city": "Irvine",
    "state": "CA",
    "category": "User Generated",
    "lat": 33.67501708023064,
    "lon": -117.79641571691192,
    "interview_count": 567
  },
  {
    "city": "Fort Worth",
    "state": "TX",
    "category": "User Generated",
    "lat": 32.75650577300784,
    "lon": -97.34918366912878,
    "interview_count": 543
  },
  {
    "city": "Portland",
    "state": "OR",
    "category": "User Generated",
    "lat": 45.53123029777167,
    "lon": -122.64506259174986,
    "interview_count": 520
  },
  {
    "city": "Washington",
    "state": "DC",
    "category": "User Generated",
    "lat": 38.90214921144497,
    "lon": -77.02614928739979,
    "interview_count": 504
  },
  {
    "city": "Tampa",
    "state": "FL",
    "category": "User Generated",
    "lat": 27.965337928945566,
    "lon": -82.46928958721554,
    "interview_count": 495
  },
  {
    "city": "Washington",
    "state": "DC",
    "category": "Signature",
    "lat": 38.90214921144497,
    "lon": -77.02614928739979,
    "interview_count": 486
  },
  {
    "city": "Leominster",
    "state": "MA",
    "category": "User Generated",
    "lat": 42.51959915647064,
    "lon": -71.76582075796581,
    "interview_count": 484
  },
  {
    "city": "Milwaukee",
    "state": "WI",
    "category": "User Generated",
    "lat": 43.0608711980936,
    "lon": -87.95667150496912,
    "interview_count": 478
  },
  {
    "city": "Oceanside",
    "state": "NY",
    "category": "User Generated",
    "lat": 40.63232310488473,
    "lon": -73.6368351623972,
    "interview_count": 478
  },
  {
    "city": "Houston",
    "state": "TX",
    "category": "User Generated",
    "lat": 29.80010925137078,
    "lon": -95.42508922178831,
    "interview_count": 476
  },
  {
    "city": "Bakersfield",
    "state": "CA",
    "category": "User Generated",
    "lat": 35.31998705777677,
    "lon": -119.01595017221977,
    "interview_count": 464
  },
  {
    "city": "Richmond",
    "state": "VA",
    "category": "User Generated",
    "lat": 37.54389553782718,
    "lon": -77.47352574238444,
    "interview_count": 460
  },
  {
    "city": "Hobart",
    "state": "IN",
    "category": "User Generated",
    "lat": 41.517620255648616,
    "lon": -87.24467108755874,
    "interview_count": 460
  },
  {
    "city": "Phoenix",
    "state": "AZ",
    "category": "User Generated",
    "lat": 33.52267085746388,
    "lon": -112.08607923411296,
    "interview_count": 460
  },
  {
    "city": "Tucson",
    "state": "AZ",
    "category": "User Generated",
    "lat": 32.19202126210603,
    "lon": -110.90130871817891,
    "interview_count": 458
  },
  {
    "city": "Santa Ana",
    "state": "CA",
    "category": "User Generated",
    "lat": 33.73870004688347,
    "lon": -117.8850155389377,
    "interview_count": 452
  },
  {
    "city": "Zionsville",
    "state": "IN",
    "category": "User Generated",
    "lat": 40.060533455138724,
    "lon": -86.25746510633043,
    "interview_count": 443
  },
  {
    "city": "Reno",
    "state": "NV",
    "category": "User Generated",
    "lat": 39.53467899354982,
    "lon": -119.84036155693218,
    "interview_count": 440
  },
  {
    "city": "Mesa",
    "state": "AZ",
    "category": "User Generated",
    "lat": 33.42119172068865,
    "lon": -111.73671029617081,
    "interview_count": 437
  },
  {
    "city": "Santa Clara",
    "state": "CA",
    "category": "User Generated",
    "lat": 37.36007602720226,
    "lon": -121.95972683804726,
    "interview_count": 434
  },
  {
    "city": "Denver",
    "state": "CO",
    "category": "User Generated",
    "lat": 39.72507607362303,
    "lon": -104.95473912214919,
    "interview_count": 420
  },
  {
    "city": "Centerton",
    "state": "AR",
    "category": "User Generated",
    "lat": 36.36842190782054,
    "lon": -94.2953905735124,
    "interview_count": 420
  },
  {
    "city": "Berwyn",
    "state": "IL",
    "category": "User Generated",
    "lat": 41.83236860190132,
    "lon": -87.78983422483421,
    "interview_count": 418
  },
  {
    "city": "Charlotte",
    "state": "NC",
    "category": "User Generated",
    "lat": 35.20962726480955,
    "lon": -80.83227703430408,
    "interview_count": 413
  },
  {
    "city": "Salt Lake City",
    "state": "UT",
    "category": "User Generated",
    "lat": 40.76544181720835,
    "lon": -111.88943529176633,
    "interview_count": 407
  },
  {
    "city": "El Paso",
    "state": "TX",
    "category": "User Generated",
    "lat": 31.816755596911143,
    "lon": -106.44431505497583,
    "interview_count": 406
  },
  {
    "city": "Bentonville",
    "state": "AR",
    "category": "User Generated",
    "lat": 36.34938170332845,
    "lon": -94.25281330625063,
    "interview_count": 402
  },
  {
    "city": "Wichita",
    "state": "KS",
    "category": "Signature",
    "lat": 37.69593590677779,
    "lon": -97.31640006371792,
    "interview_count": 397
  },
  {
    "city": "Alexandria",
    "state": "IN",
    "category": "User Generated",
    "lat": 40.25141778389653,
    "lon": -85.65837830648886,
    "interview_count": 376
  },
  {
    "city": "Richmond",
    "state": "VA",
    "category": "Signature",
    "lat": 37.54389553782718,
    "lon": -77.47352574238444,
    "interview_count": 369
  },
  {
    "city": "Baltimore",
    "state": "MD",
    "category": "Signature",
    "lat": 39.3141654512822,
    "lon": -76.61015021007796,
    "interview_count": 363
  },
  {
    "city": "Kansas City",
    "state": "MO",
    "category": "User Generated",
    "lat": 39.10334974925639,
    "lon": -94.54658187138652,
    "interview_count": 357
  },
  {
    "city": "Platte City",
    "state": "MO",
    "category": "User Generated",
    "lat": 39.3626964651937,
    "lon": -94.79343213419557,
    "interview_count": 357
  },
  {
    "city": "Philadelphia",
    "state": "PA",
    "category": "Signature",
    "lat": 39.999893363728816,
    "lon": -75.1487358621867,
    "interview_count": 353
  },
  {
    "city": "Louisville",
    "state": "KY",
    "category": "User Generated",
    "lat": 38.22508296900987,
    "lon": -85.74003336571792,
    "interview_count": 352
  },
  {
    "city": "Salinas",
    "state": "CA",
    "category": "User Generated",
    "lat": 36.68512665840234,
    "lon": -121.62269957578638,
    "interview_count": 350
  },
  {
    "city": "St. Louis",
    "state": "MO",
    "category": "User Generated",
    "lat": 38.632889306896004,
    "lon": -90.23846051332545,
    "interview_count": 349
  },
  {
    "city": "Norfolk",
    "state": "VA",
    "category": "User Generated",
    "lat": 36.888418560301616,
    "lon": -76.27321890636411,
    "interview_count": 341
  },
  {
    "city": "Virginia Beach",
    "state": "VA",
    "category": "User Generated",
    "lat": 36.80972161223135,
    "lon": -76.07420316508947,
    "interview_count": 339
  },
  {
    "city": "Chandler",
    "state": "AZ",
    "category": "User Generated",
    "lat": 33.26978277937198,
    "lon": -111.85860556598394,
    "interview_count": 332
  },
  {
    "city": "Columbia",
    "state": "SC",
    "category": "Signature",
    "lat": 34.035080956458415,
    "lon": -80.97136616550732,
    "interview_count": 331
  },
  {
    "city": "Minneapolis",
    "state": "MN",
    "category": "User Generated",
    "lat": 44.95998331622576,
    "lon": -93.26435367283725,
    "interview_count": 329
  },
  {
    "city": "Birmingham",
    "state": "AL",
    "category": "User Generated",
    "lat": 33.533288987403076,
    "lon": -86.83768519279343,
    "interview_count": 328
  },
  {
    "city": "Detroit",
    "state": "MI",
    "category": "User Generated",
    "lat": 42.37515993353948,
    "lon": -83.10350777612813,
    "interview_count": 325
  },
  {
    "city": "Columbus",
    "state": "OH",
    "category": "User Generated",
    "lat": 39.98375899464692,
    "lon": -82.97866668829447,
    "interview_count": 323
  },
  {
    "city": "Pittsburgh",
    "state": "PA",
    "category": "User Generated",
    "lat": 40.4422193659764,
    "lon": -79.98685556704083,
    "interview_count": 307
  },
  {
    "city": "Hoover",
    "state": "AL",
    "category": "User Generated",
    "lat": 33.39135251945038,
    "lon": -86.78053601016464,
    "interview_count": 300
  },
  {
    "city": "Brooklyn",
    "state": "NY",
    "category": "Signature",
    "lat": 40.72838682757115,
    "lon": -73.92327837787745,
    "interview_count": 299
  },
  {
    "city": "Fresno",
    "state": "CA",
    "category": "Signature",
    "lat": 36.77842409525324,
    "lon": -119.78878955562116,
    "interview_count": 296
  },
  {
    "city": "San Antonio",
    "state": "TX",
    "category": "Signature",
    "lat": 29.455482770652125,
    "lon": -98.53133068271862,
    "interview_count": 296
  },
  {
    "city": "Charlottesville",
    "state": "VA",
    "category": "User Generated",
    "lat": 38.02195230696776,
    "lon": -78.5306699254195,
    "interview_count": 288
  },
  {
    "city": "Las Vegas",
    "state": "NV",
    "category": "User Generated",
    "lat": 36.213281684354996,
    "lon": -115.25788553030664,
    "interview_count": 285
  },
  {
    "city": "Bethlehem",
    "state": "PA",
    "category": "User Generated",
    "lat": 40.625700447513665,
    "lon": -75.3835458925177,
    "interview_count": 285
  },
  {
    "city": "Flint",
    "state": "MI",
    "category": "User Generated",
    "lat": 43.02803533282617,
    "lon": -83.70736580998344,
    "interview_count": 283
  },
  {
    "city": "Baltimore",
    "state": "MD",
    "category": "User Generated",
    "lat": 39.3141654512822,
    "lon": -76.61015021007796,
    "interview_count": 276
  },
  {
    "city": "Plano",
    "state": "TX",
    "category": "User Generated",
    "lat": 33.05234789118029,
    "lon": -96.75079207429496,
    "interview_count": 272
  },
  {
    "city": "Orlando",
    "state": "FL",
    "category": "User Generated",
    "lat": 28.505311536690222,
    "lon": -81.35253953755617,
    "interview_count": 270
  },
  {
    "city": "Nashville",
    "state": "TN",
    "category": "Signature",
    "lat": 36.174175410386574,
    "lon": -86.77080107769572,
    "interview_count": 269
  },
  {
    "city": "San Luis Obispo",
    "state": "CA",
    "category": "User Generated",
    "lat": 35.26602229561671,
    "lon": -120.67227059080165,
    "interview_count": 265
  },
  {
    "city": "Huntington",
    "state": "WV",
    "category": "User Generated",
    "lat": 38.40135574009451,
    "lon": -82.41008706394847,
    "interview_count": 256
  },
  {
    "city": "Sacramento",
    "state": "CA",
    "category": "User Generated",
    "lat": 38.56223162499167,
    "lon": -121.47341028703029,
    "interview_count": 255
  },
  {
    "city": "Flagstaff",
    "state": "AZ",
    "category": "User Generated",
    "lat": 35.21529037733025,
    "lon": -111.55269419762045,
    "interview_count": 251
  },
  {
    "city": "Seattle",
    "state": "WA",
    "category": "Signature",
    "lat": 47.61640785812064,
    "lon": -122.33535564217213,
    "interview_count": 249
  },
  {
    "city": "Moorhead",
    "state": "MN",
    "category": "User Generated",
    "lat": 46.85580866526489,
    "lon": -96.75337655969732,
    "interview_count": 247
  },
  {
    "city": "Tucson",
    "state": "AZ",
    "category": "Signature",
    "lat": 32.19202126210603,
    "lon": -110.90130871817891,
    "interview_count": 242
  },
  {
    "city": "Auburn",
    "state": "AL",
    "category": "User Generated",
    "lat": 32.61468793667693,
    "lon": -85.52979837989906,
    "interview_count": 241
  },
  {
    "city": "Muncie",
    "state": "IN",
    "category": "User Generated",
    "lat": 40.20686007322365,
    "lon": -85.40093617081062,
    "interview_count": 239
  },
  {
    "city": "Mckinney",
    "state": "TX",
    "category": "User Generated",
    "lat": 33.18925025256252,
    "lon": -96.65615931579748,
    "interview_count": 238
  },
  {
    "city": "Spokane",
    "state": "WA",
    "category": "User Generated",
    "lat": 47.67324998378244,
    "lon": -117.4068254947503,
    "interview_count": 235
  },
  {
    "city": "Memphis",
    "state": "TN",
    "category": "Signature",
    "lat": 35.11572570794369,
    "lon": -89.9508158250476,
    "interview_count": 232
  },
  {
    "city": "Austin",
    "state": "TX",
    "category": "Signature",
    "lat": 30.296276341729,
    "lon": -97.75255907908898,
    "interview_count": 229
  },
  {
    "city": "Newton",
    "state": "MA",
    "category": "User Generated",
    "lat": 42.33373398069182,
    "lon": -71.21973927908422,
    "interview_count": 227
  },
  {
    "city": "Albuquerque",
    "state": "NM",
    "category": "User Generated",
    "lat": 35.11367555201398,
    "lon": -106.6051528723638,
    "interview_count": 225
  },
  {
    "city": "Brookfield",
    "state": "WI",
    "category": "User Generated",
    "lat": 43.061747793272886,
    "lon": -88.12531521797558,
    "interview_count": 224
  },
  {
    "city": "Blacksburg",
    "state": "VA",
    "category": "User Generated",
    "lat": 37.24156294403745,
    "lon": -80.42320428413112,
    "interview_count": 223
  },
  {
    "city": "Pittsburgh",
    "state": "PA",
    "category": "Signature",
    "lat": 40.4422193659764,
    "lon": -79.98685556704083,
    "interview_count": 222
  },
  {
    "city": "Santa Monica",
    "state": "CA",
    "category": "User Generated",
    "lat": 34.023799599088996,
    "lon": -118.48692371884434,
    "interview_count": 221
  },
  {
    "city": "Huntington Beach",
    "state": "CA",
    "category": "User Generated",
    "lat": 33.70056841392117,
    "lon": -118.02122828540072,
    "interview_count": 217
  },
  {
    "city": "Rockville",
    "state": "MD",
    "category": "User Generated",
    "lat": 39.0842210343498,
    "lon": -77.15090668997652,
    "interview_count": 211
  },
  {
    "city": "Oklahoma City",
    "state": "OK",
    "category": "Signature",
    "lat": 35.48026527009463,
    "lon": -97.52573860639485,
    "interview_count": 210
  },
  {
    "city": "Los Angeles",
    "state": "CA",
    "category": "Signature",
    "lat": 34.08984975590782,
    "lon": -118.3761524984978,
    "interview_count": 209
  },
  {
    "city": "Columbus",
    "state": "GA",
    "category": "Signature",
    "lat": 32.52292846874509,
    "lon": -84.91899662851908,
    "interview_count": 209
  },
  {
    "city": "Vestavia Hills",
    "state": "AL",
    "category": "User Generated",
    "lat": 33.43095117662048,
    "lon": -86.76400056515567,
    "interview_count": 206
  },
  {
    "city": "Detroit",
    "state": "MI",
    "category": "Signature",
    "lat": 42.37515993353948,
    "lon": -83.10350777612813,
    "interview_count": 201
  },
  {
    "city": "Mobile",
    "state": "AL",
    "category": "Signature",
    "lat": 30.664412639677636,
    "lon": -88.13281879509923,
    "interview_count": 199
  },
  {
    "city": "Missoula",
    "state": "MT",
    "category": "Signature",
    "lat": 46.875909299846604,
    "lon": -113.98753757598908,
    "interview_count": 198
  },
  {
    "city": "Grand Rapids",
    "state": "MI",
    "category": "User Generated",
    "lat": 42.96349153523302,
    "lon": -85.65477906751256,
    "interview_count": 197
  },
  {
    "city": "Springdale",
    "state": "AR",
    "category": "User Generated",
    "lat": 36.18248012292281,
    "lon": -94.13945156922728,
    "interview_count": 197
  },
  {
    "city": "Iowa City",
    "state": "IA",
    "category": "User Generated",
    "lat": 41.65327817140535,
    "lon": -91.5365806832039,
    "interview_count": 196
  },
  {
    "city": "Olathe",
    "state": "KS",
    "category": "User Generated",
    "lat": 38.866533743234584,
    "lon": -94.83241617650293,
    "interview_count": 196
  },
  {
    "city": "Tallahassee",
    "state": "FL",
    "category": "User Generated",
    "lat": 30.45364110856031,
    "lon": -84.26455368462884,
    "interview_count": 195
  },
  {
    "city": "Orlando",
    "state": "FL",
    "category": "Signature",
    "lat": 28.505311536690222,
    "lon": -81.35253953755617,
    "interview_count": 195
  },
  {
    "city": "Cincinnati",
    "state": "OH",
    "category": "User Generated",
    "lat": 39.14172343973774,
    "lon": -84.49929740817934,
    "interview_count": 194
  },
  {
    "city": "Corpus Christi",
    "state": "TX",
    "category": "User Generated",
    "lat": 27.745569287467724,
    "lon": -97.407010474422,
    "interview_count": 193
  },
  {
    "city": "Lexington",
    "state": "KY",
    "category": "Signature",
    "lat": 38.02830861632251,
    "lon": -84.49394511655179,
    "interview_count": 193
  },
  {
    "city": "Los Gatos",
    "state": "CA",
    "category": "User Generated",
    "lat": 37.21509930332495,
    "lon": -121.95341030554444,
    "interview_count": 192
  },
  {
    "city": "Portland",
    "state": "OR",
    "category": "Signature",
    "lat": 45.53123029777167,
    "lon": -122.64506259174986,
    "interview_count": 192
  },
  {
    "city": "Ashburn",
    "state": "VA",
    "category": "User Generated",
    "lat": 39.04150683101212,
    "lon": -77.47958460765854,
    "interview_count": 191
  },
  {
    "city": "New Orleans",
    "state": "LA",
    "category": "Signature",
    "lat": 29.97684790046011,
    "lon": -90.04408841245795,
    "interview_count": 189
  },
  {
    "city": "Carmel",
    "state": "IN",
    "category": "User Generated",
    "lat": 39.954026059664045,
    "lon": -86.13440765288158,
    "interview_count": 189
  },
  {
    "city": "Greensboro",
    "state": "NC",
    "category": "User Generated",
    "lat": 36.09279758641077,
    "lon": -79.80779325081922,
    "interview_count": 187
  },
  {
    "city": "Bronx",
    "state": "NY",
    "category": "User Generated",
    "lat": 40.72838682757115,
    "lon": -73.92327837787745,
    "interview_count": 186
  },
  {
    "city": "Overland Park",
    "state": "KS",
    "category": "User Generated",
    "lat": 38.89574634536841,
    "lon": -94.6823085915085,
    "interview_count": 185
  },
  {
    "city": "Fort Myers",
    "state": "FL",
    "category": "Signature",
    "lat": 26.57908009381144,
    "lon": -81.81549055946071,
    "interview_count": 183
  },
  {
    "city": "Providence",
    "state": "RI",
    "category": "Signature",
    "lat": 41.82851896125325,
    "lon": -71.43405954879842,
    "interview_count": 182
  },
  {
    "city": "Colorado Springs",
    "state": "CO",
    "category": "Signature",
    "lat": 38.87019438297266,
    "lon": -104.7484465730882,
    "interview_count": 181
  },
  {
    "city": "Rochester",
    "state": "NY",
    "category": "User Generated",
    "lat": 43.166180631052384,
    "lon": -77.63842590433102,
    "interview_count": 181
  },
  {
    "city": "Birmingham",
    "state": "AL",
    "category": "Signature",
    "lat": 33.533288987403076,
    "lon": -86.83768519279343,
    "interview_count": 179
  },
  {
    "city": "Chula Vista",
    "state": "CA",
    "category": "User Generated",
    "lat": 32.63075717899262,
    "lon": -117.00066140626193,
    "interview_count": 177
  },
  {
    "city": "Knoxville",
    "state": "TN",
    "category": "User Generated",
    "lat": 35.96484821913391,
    "lon": -83.94297594859452,
    "interview_count": 175
  },
  {
    "city": "Asheville",
    "state": "NC",
    "category": "User Generated",
    "lat": 35.564641524376654,
    "lon": -82.57658652017469,
    "interview_count": 175
  },
  {
    "city": "Chico",
    "state": "CA",
    "category": "User Generated",
    "lat": 39.73577887282268,
    "lon": -121.84707568351817,
    "interview_count": 174
  },
  {
    "city": "Flower Mound",
    "state": "TX",
    "category": "User Generated",
    "lat": 33.029674963821755,
    "lon": -97.09078390421621,
    "interview_count": 173
  },
  {
    "city": "Toledo",
    "state": "OH",
    "category": "User Generated",
    "lat": 41.6677224699345,
    "lon": -83.57695956828204,
    "interview_count": 172
  },
  {
    "city": "Buffalo",
    "state": "NY",
    "category": "User Generated",
    "lat": 42.9036078809598,
    "lon": -78.85284911769493,
    "interview_count": 171
  },
  {
    "city": "Shreveport",
    "state": "LA",
    "category": "Signature",
    "lat": 32.435285093276285,
    "lon": -93.79178024002688,
    "interview_count": 170
  },
  {
    "city": "San Diego",
    "state": "CA",
    "category": "Signature",
    "lat": 32.795794851511275,
    "lon": -117.1466625798572,
    "interview_count": 170
  },
  {
    "city": "Akron",
    "state": "OH",
    "category": "User Generated",
    "lat": 41.07790919618337,
    "lon": -81.52555380937454,
    "interview_count": 170
  },
  {
    "city": "Kettering",
    "state": "OH",
    "category": "User Generated",
    "lat": 39.70035027845533,
    "lon": -84.1458137135116,
    "interview_count": 170
  },
  {
    "city": "Jacksonville",
    "state": "FL",
    "category": "Signature",
    "lat": 30.30245473378662,
    "lon": -81.64535154270578,
    "interview_count": 170
  },
  {
    "city": "Midlothian",
    "state": "VA",
    "category": "User Generated",
    "lat": 37.51128044410598,
    "lon": -77.67074839361354,
    "interview_count": 168
  },
  {
    "city": "Kansas City",
    "state": "MO",
    "category": "Signature",
    "lat": 39.10334974925639,
    "lon": -94.54658187138652,
    "interview_count": 167
  },
  {
    "city": "Richmond",
    "state": "CA",
    "category": "User Generated",
    "lat": 37.94669379782527,
    "lon": -122.3343978922939,
    "interview_count": 164
  },
  {
    "city": "Las Cruces",
    "state": "NM",
    "category": "Signature",
    "lat": 32.37458517092012,
    "lon": -106.81967905547532,
    "interview_count": 162
  },
  {
    "city": "chicago",
    "state": "IL",
    "category": "User Generated",
    "lat": 41.86983498113166,
    "lon": -87.67756225311193,
    "interview_count": 160
  },
  {
    "city": "Oakland",
    "state": "CA",
    "category": "Signature",
    "lat": 37.79908491953811,
    "lon": -122.22088264850926,
    "interview_count": 160
  },
  {
    "city": "Bloomington",
    "state": "IN",
    "category": "User Generated",
    "lat": 39.1756070283764,
    "lon": -86.54025749539358,
    "interview_count": 159
  },
  {
    "city": "Eugene",
    "state": "OR",
    "category": "User Generated",
    "lat": 44.05098128379553,
    "lon": -123.11718387878186,
    "interview_count": 158
  },
  {
    "city": "Tampa",
    "state": "FL",
    "category": "Signature",
    "lat": 27.965337928945566,
    "lon": -82.46928958721554,
    "interview_count": 156
  },
  {
    "city": "New Brunswick",
    "state": "NJ",
    "category": "User Generated",
    "lat": 40.48428709771686,
    "lon": -74.44277758984329,
    "interview_count": 156
  },
  {
    "city": "Charlotte",
    "state": "NC",
    "category": "Signature",
    "lat": 35.20962726480955,
    "lon": -80.83227703430408,
    "interview_count": 156
  },
  {
    "city": "Chantilly",
    "state": "VA",
    "category": "User Generated",
    "lat": 38.89586018121946,
    "lon": -77.444545301575,
    "interview_count": 156
  },
  {
    "city": "Huntsville",
    "state": "TX",
    "category": "User Generated",
    "lat": 30.72246298898529,
    "lon": -95.55237441089797,
    "interview_count": 156
  },
  {
    "city": "Murray",
    "state": "UT",
    "category": "User Generated",
    "lat": 40.65801672255916,
    "lon": -111.88451863732814,
    "interview_count": 155
  },
  {
    "city": "Fort Collins",
    "state": "CO",
    "category": "Signature",
    "lat": 40.568424572690134,
    "lon": -105.14872262381894,
    "interview_count": 155
  },
  {
    "city": "Omaha",
    "state": "NE",
    "category": "User Generated",
    "lat": 41.26957599521112,
    "lon": -96.04147312373973,
    "interview_count": 155
  },
  {
    "city": "Boston",
    "state": "MA",
    "category": "Signature",
    "lat": 42.33513664489329,
    "lon": -71.08085243124081,
    "interview_count": 154
  },
  {
    "city": "York",
    "state": "PA",
    "category": "User Generated",
    "lat": 39.98196981310336,
    "lon": -76.7529157044767,
    "interview_count": 154
  },
  {
    "city": "Salem",
    "state": "OR",
    "category": "User Generated",
    "lat": 44.93192361065705,
    "lon": -123.00991092016812,
    "interview_count": 154
  },
  {
    "city": "Abilene",
    "state": "TX",
    "category": "User Generated",
    "lat": 32.425800380040634,
    "lon": -99.76839701307426,
    "interview_count": 154
  },
  {
    "city": "Dallas",
    "state": "TX",
    "category": "Signature",
    "lat": 32.805500089319814,
    "lon": -96.79785358194775,
    "interview_count": 154
  },
  {
    "city": "New Orleans",
    "state": "LA",
    "category": "User Generated",
    "lat": 29.97684790046011,
    "lon": -90.04408841245795,
    "interview_count": 153
  },
  {
    "city": "Flint",
    "state": "MI",
    "category": "Signature",
    "lat": 43.02803533282617,
    "lon": -83.70736580998344,
    "interview_count": 153
  },
  {
    "city": "Buffalo",
    "state": "NY",
    "category": "Signature",
    "lat": 42.9036078809598,
    "lon": -78.85284911769493,
    "interview_count": 152
  },
  {
    "city": "Burlington",
    "state": "VT",
    "category": "Signature",
    "lat": 44.47473500405806,
    "lon": -73.20700135884965,
    "interview_count": 150
  },
  {
    "city": "Chattanooga",
    "state": "TN",
    "category": "Signature",
    "lat": 35.05819212996578,
    "lon": -85.28311907225998,
    "interview_count": 150
  },
  {
    "city": "Cincinnati",
    "state": "OH",
    "category": "Signature",
    "lat": 39.14172343973774,
    "lon": -84.49929740817934,
    "interview_count": 148
  },
  {
    "city": "Cleveland",
    "state": "OH",
    "category": "User Generated",
    "lat": 41.494324516180654,
    "lon": -81.66576541544718,
    "interview_count": 147
  },
  {
    "city": "Mooresville",
    "state": "NC",
    "category": "User Generated",
    "lat": 35.580007913039886,
    "lon": -80.77476528391924,
    "interview_count": 146
  },
  {
    "city": "Medina",
    "state": "OH",
    "category": "User Generated",
    "lat": 41.14092653340557,
    "lon": -81.85955120038913,
    "interview_count": 145
  },
  {
    "city": "Pasadena",
    "state": "CA",
    "category": "User Generated",
    "lat": 34.151115151944644,
    "lon": -118.13342678728816,
    "interview_count": 143
  },
  {
    "city": "Wylie",
    "state": "TX",
    "category": "User Generated",
    "lat": 33.03708509268078,
    "lon": -96.46098521470773,
    "interview_count": 143
  },
  {
    "city": "Durham",
    "state": "NC",
    "category": "User Generated",
    "lat": 36.003610215449115,
    "lon": -78.89960826170271,
    "interview_count": 142
  },
  {
    "city": "Oakland",
    "state": "CA",
    "category": "User Generated",
    "lat": 37.79908491953811,
    "lon": -122.22088264850926,
    "interview_count": 141
  },
  {
    "city": "Jacksonville",
    "state": "FL",
    "category": "User Generated",
    "lat": 30.30245473378662,
    "lon": -81.64535154270578,
    "interview_count": 141
  },
  {
    "city": "Macon",
    "state": "GA",
    "category": "User Generated",
    "lat": 32.81819153851111,
    "lon": -83.66331110896657,
    "interview_count": 140
  },
  {
    "city": "Las Cruces",
    "state": "NM",
    "category": "User Generated",
    "lat": 32.37458517092012,
    "lon": -106.81967905547532,
    "interview_count": 139
  },
  {
    "city": "Des Moines",
    "state": "IA",
    "category": "Signature",
    "lat": 41.5905527167707,
    "lon": -93.62603229844231,
    "interview_count": 139
  },
  {
    "city": "Leesburg",
    "state": "VA",
    "category": "User Generated",
    "lat": 39.12274293403619,
    "lon": -77.56694462564377,
    "interview_count": 138
  },
  {
    "city": "Wellesley",
    "state": "MA",
    "category": "User Generated",
    "lat": 42.30095900085452,
    "lon": -71.28179729125347,
    "interview_count": 138
  },
  {
    "city": "Madison",
    "state": "WI",
    "category": "User Generated",
    "lat": 43.074930956138196,
    "lon": -89.3969878661499,
    "interview_count": 138
  },
  {
    "city": "Hinsdale",
    "state": "IL",
    "category": "User Generated",
    "lat": 41.80012097964641,
    "lon": -87.928797562914,
    "interview_count": 136
  },
  {
    "city": "Warrensburg",
    "state": "MO",
    "category": "User Generated",
    "lat": 38.7905061551891,
    "lon": -93.73202605542848,
    "interview_count": 136
  },
  {
    "city": "Laurel",
    "state": "MD",
    "category": "User Generated",
    "lat": 39.095631429420365,
    "lon": -76.88423806297597,
    "interview_count": 135
  },
  {
    "city": "Corpus Christi",
    "state": "TX",
    "category": "Signature",
    "lat": 27.745569287467724,
    "lon": -97.407010474422,
    "interview_count": 134
  },
  {
    "city": "Hingham",
    "state": "MA",
    "category": "User Generated",
    "lat": 42.216615752654555,
    "lon": -70.88490487713918,
    "interview_count": 134
  },
  {
    "city": "Columbus",
    "state": "OH",
    "category": "Signature",
    "lat": 39.98375899464692,
    "lon": -82.97866668829447,
    "interview_count": 132
  },
  {
    "city": "Shepherdstown",
    "state": "WV",
    "category": "User Generated",
    "lat": 39.43822625424048,
    "lon": -77.81469075265055,
    "interview_count": 131
  },
  {
    "city": "Silver Spring",
    "state": "MD",
    "category": "Signature",
    "lat": 39.01192997119608,
    "lon": -77.02278584186794,
    "interview_count": 131
  },
  {
    "city": "Nashville",
    "state": "TN",
    "category": "User Generated",
    "lat": 36.174175410386574,
    "lon": -86.77080107769572,
    "interview_count": 130
  },
  {
    "city": "Santa Rosa",
    "state": "CA",
    "category": "User Generated",
    "lat": 38.45207442818831,
    "lon": -122.70382273867031,
    "interview_count": 130
  },
  {
    "city": "Santa Monica",
    "state": "CA",
    "category": "Signature",
    "lat": 34.023799599088996,
    "lon": -118.48692371884434,
    "interview_count": 128
  },
  {
    "city": "Pensacola",
    "state": "FL",
    "category": "User Generated",
    "lat": 30.445680853778214,
    "lon": -87.21348166779683,
    "interview_count": 127
  },
  {
    "city": "Athens",
    "state": "GA",
    "category": "Signature",
    "lat": 33.9507826337098,
    "lon": -83.38582824014097,
    "interview_count": 127
  },
  {
    "city": "Las Vegas",
    "state": "NV",
    "category": "Signature",
    "lat": 36.213281684354996,
    "lon": -115.25788553030664,
    "interview_count": 126
  },
  {
    "city": "Charleston",
    "state": "WV",
    "category": "Signature",
    "lat": 38.347023746585634,
    "lon": -81.61459627501678,
    "interview_count": 126
  },
  {
    "city": "Brookline",
    "state": "MA",
    "category": "User Generated",
    "lat": 42.32881924513138,
    "lon": -71.13866797503243,
    "interview_count": 126
  },
  {
    "city": "Pico Rivera",
    "state": "CA",
    "category": "User Generated",
    "lat": 33.98870250483831,
    "lon": -118.09106376672116,
    "interview_count": 126
  },
  {
    "city": "Wilmington",
    "state": "NC",
    "category": "User Generated",
    "lat": 34.21226703448341,
    "lon": -77.90010568928227,
    "interview_count": 125
  },
  {
    "city": "Flemington",
    "state": "NJ",
    "category": "User Generated",
    "lat": 40.522792737720984,
    "lon": -74.86580322775866,
    "interview_count": 124
  },
  {
    "city": "Napa",
    "state": "CA",
    "category": "User Generated",
    "lat": 38.38053402082656,
    "lon": -122.27938585588205,
    "interview_count": 124
  },
  {
    "city": "Manhattan Beach",
    "state": "CA",
    "category": "User Generated",
    "lat": 33.891614299638164,
    "lon": -118.4033235599692,
    "interview_count": 123
  },
  {
    "city": "Long Beach",
    "state": "CA",
    "category": "User Generated",
    "lat": 33.792047661879046,
    "lon": -118.15685142784206,
    "interview_count": 123
  },
  {
    "city": "St. Joseph",
    "state": "MO",
    "category": "User Generated",
    "lat": 39.7615998629192,
    "lon": -94.83273660089122,
    "interview_count": 122
  },
  {
    "city": "New Hope",
    "state": "PA",
    "category": "User Generated",
    "lat": 40.351215379223305,
    "lon": -74.9977531255486,
    "interview_count": 122
  },
  {
    "city": "Broken Arrow",
    "state": "OK",
    "category": "User Generated",
    "lat": 36.030253827553246,
    "lon": -95.76114324827813,
    "interview_count": 121
  },
  {
    "city": "St. Louis",
    "state": "MO",
    "category": "Signature",
    "lat": 38.632889306896004,
    "lon": -90.23846051332545,
    "interview_count": 121
  },
  {
    "city": "Bloomington",
    "state": "IN",
    "category": "Signature",
    "lat": 39.1756070283764,
    "lon": -86.54025749539358,
    "interview_count": 120
  },
  {
    "city": "Columbia",
    "state": "SC",
    "category": "User Generated",
    "lat": 34.035080956458415,
    "lon": -80.97136616550732,
    "interview_count": 119
  },
  {
    "city": "Roswell",
    "state": "GA",
    "category": "User Generated",
    "lat": 34.04031377630689,
    "lon": -84.3523044457058,
    "interview_count": 118
  },
  {
    "city": "Missoula",
    "state": "MT",
    "category": "User Generated",
    "lat": 46.875909299846604,
    "lon": -113.98753757598908,
    "interview_count": 118
  },
  {
    "city": "Gainesville",
    "state": "FL",
    "category": "User Generated",
    "lat": 29.66556168662924,
    "lon": -82.3557562096137,
    "interview_count": 118
  },
  {
    "city": "Elgin",
    "state": "TX",
    "category": "User Generated",
    "lat": 30.33734630497103,
    "lon": -97.360593701479,
    "interview_count": 118
  },
  {
    "city": "Lakeland",
    "state": "FL",
    "category": "User Generated",
    "lat": 28.061686727577488,
    "lon": -81.95408973790597,
    "interview_count": 118
  },
  {
    "city": "Anaheim",
    "state": "CA",
    "category": "User Generated",
    "lat": 33.83511331094922,
    "lon": -117.87951727036561,
    "interview_count": 118
  },
  {
    "city": "Wilmington",
    "state": "NC",
    "category": "Signature",
    "lat": 34.21226703448341,
    "lon": -77.90010568928227,
    "interview_count": 117
  },
  {
    "city": "El Paso",
    "state": "TX",
    "category": "Signature",
    "lat": 31.816755596911143,
    "lon": -106.44431505497583,
    "interview_count": 116
  },
  {
    "city": "Frisco",
    "state": "TX",
    "category": "User Generated",
    "lat": 33.149266923597,
    "lon": -96.84242360258482,
    "interview_count": 116
  },
  {
    "city": "Livonia",
    "state": "MI",
    "category": "User Generated",
    "lat": 42.39732526513309,
    "lon": -83.37336103309796,
    "interview_count": 116
  },
  {
    "city": "Glendale",
    "state": "AZ",
    "category": "User Generated",
    "lat": 33.56878699417644,
    "lon": -112.25103756811225,
    "interview_count": 115
  },
  {
    "city": "Vancouver",
    "state": "WA",
    "category": "User Generated",
    "lat": 45.64379750629175,
    "lon": -122.58661458578484,
    "interview_count": 115
  },
  {
    "city": "Provincetown",
    "state": "MA",
    "category": "User Generated",
    "lat": 42.05771191715581,
    "lon": -70.19792051832464,
    "interview_count": 115
  },
  {
    "city": "Fayetteville",
    "state": "AR",
    "category": "User Generated",
    "lat": 36.06918475423658,
    "lon": -94.14201702849181,
    "interview_count": 114
  },
  {
    "city": "Santa Cruz",
    "state": "CA",
    "category": "User Generated",
    "lat": 36.98224221081345,
    "lon": -122.02447044890528,
    "interview_count": 113
  },
  {
    "city": "Yuma",
    "state": "AZ",
    "category": "Signature",
    "lat": 32.88748997983528,
    "lon": -114.39763601799393,
    "interview_count": 112
  },
  {
    "city": "Staten Island",
    "state": "NY",
    "category": "User Generated",
    "lat": 40.72838682757115,
    "lon": -73.92327837787745,
    "interview_count": 112
  },
  {
    "city": "Oceanside",
    "state": "CA",
    "category": "User Generated",
    "lat": 33.21623422359757,
    "lon": -117.31131736448357,
    "interview_count": 112
  },
  {
    "city": "Midland",
    "state": "TX",
    "category": "User Generated",
    "lat": 31.98755476618502,
    "lon": -102.08910117219426,
    "interview_count": 111
  },
  {
    "city": "Bethesda",
    "state": "MD",
    "category": "User Generated",
    "lat": 38.992965771475056,
    "lon": -77.11118100759806,
    "interview_count": 111
  },
  {
    "city": "Fargo",
    "state": "ND",
    "category": "User Generated",
    "lat": 46.866646796628366,
    "lon": -96.82403245889277,
    "interview_count": 111
  },
  {
    "city": "College Station",
    "state": "TX",
    "category": "User Generated",
    "lat": 30.596318689179764,
    "lon": -96.31319832919107,
    "interview_count": 110
  },
  {
    "city": "Hartford",
    "state": "CT",
    "category": "Signature",
    "lat": 41.78294138939624,
    "lon": -72.68242923031646,
    "interview_count": 109
  },
  {
    "city": "Kalamazoo",
    "state": "MI",
    "category": "Signature",
    "lat": 42.30056997943801,
    "lon": -85.5982141626283,
    "interview_count": 108
  },
  {
    "city": "Denton",
    "state": "TX",
    "category": "User Generated",
    "lat": 33.205188802712634,
    "lon": -97.12528914569488,
    "interview_count": 108
  },
  {
    "city": "Pensacola",
    "state": "FL",
    "category": "Signature",
    "lat": 30.445680853778214,
    "lon": -87.21348166779683,
    "interview_count": 108
  },
  {
    "city": "Goodyear",
    "state": "AZ",
    "category": "User Generated",
    "lat": 33.258492276792516,
    "lon": -112.34149501251248,
    "interview_count": 108
  },
  {
    "city": "Platte city",
    "state": "MO",
    "category": "User Generated",
    "lat": 39.3626964651937,
    "lon": -94.79343213419557,
    "interview_count": 108
  },
  {
    "city": "New Haven",
    "state": "CT",
    "category": "User Generated",
    "lat": 41.322741284369656,
    "lon": -72.9274605380824,
    "interview_count": 108
  },
  {
    "city": "platte city",
    "state": "MO",
    "category": "User Generated",
    "lat": 39.3626964651937,
    "lon": -94.79343213419557,
    "interview_count": 108
  },
  {
    "city": "Queens",
    "state": "NY",
    "category": "User Generated",
    "lat": 40.72838682757115,
    "lon": -73.92327837787745,
    "interview_count": 105
  },
  {
    "city": "Lake Geneva",
    "state": "WI",
    "category": "Signature",
    "lat": 42.570730380938706,
    "lon": -88.45024748443097,
    "interview_count": 104
  },
  {
    "city": "Miamisburg",
    "state": "OH",
    "category": "User Generated",
    "lat": 39.62941458247863,
    "lon": -84.27541659832357,
    "interview_count": 104
  },
  {
    "city": "Torrance",
    "state": "CA",
    "category": "User Generated",
    "lat": 33.83761330623442,
    "lon": -118.3367735900487,
    "interview_count": 104
  },
  {
    "city": "Salt Lake City",
    "state": "UT",
    "category": "Signature",
    "lat": 40.76544181720835,
    "lon": -111.88943529176633,
    "interview_count": 103
  },
  {
    "city": "Coppell",
    "state": "TX",
    "category": "User Generated",
    "lat": 32.96183670547005,
    "lon": -96.98397484970549,
    "interview_count": 103
  },
  {
    "city": "Fremont",
    "state": "CA",
    "category": "User Generated",
    "lat": 37.53615272977012,
    "lon": -121.98534123524496,
    "interview_count": 103
  },
  {
    "city": "Boulder",
    "state": "CO",
    "category": "User Generated",
    "lat": 40.00989481403711,
    "lon": -105.24237493725865,
    "interview_count": 103
  },
  {
    "city": "Bronx",
    "state": "NY",
    "category": "Signature",
    "lat": 40.72838682757115,
    "lon": -73.92327837787745,
    "interview_count": 103
  },
  {
    "city": "Boise City",
    "state": "ID",
    "category": "User Generated",
    "lat": 43.61350450196057,
    "lon": -116.22516454851463,
    "interview_count": 102
  },
  {
    "city": "Alexandria",
    "state": "VA",
    "category": "User Generated",
    "lat": 38.823278314670304,
    "lon": -77.08341127858435,
    "interview_count": 102
  },
  {
    "city": "West Linn",
    "state": "OR",
    "category": "User Generated",
    "lat": 45.35194365164738,
    "lon": -122.66874590092331,
    "interview_count": 101
  },
  {
    "city": "Albuquerque",
    "state": "NM",
    "category": "Signature",
    "lat": 35.11367555201398,
    "lon": -106.6051528723638,
    "interview_count": 101
  },
  {
    "city": "Springfield",
    "state": "MO",
    "category": "Signature",
    "lat": 37.19080385641553,
    "lon": -93.28942445258159,
    "interview_count": 101
  },
  {
    "city": "Mechanicsburg",
    "state": "PA",
    "category": "User Generated",
    "lat": 40.17755955489111,
    "lon": -76.99790860205403,
    "interview_count": 100
  },
  {
    "city": "Marietta",
    "state": "GA",
    "category": "User Generated",
    "lat": 33.955514727370144,
    "lon": -84.52103322359008,
    "interview_count": 100
  },
  {
    "city": "Rye",
    "state": "NY",
    "category": "User Generated",
    "lat": 40.97866911339988,
    "lon": -73.69340205901165,
    "interview_count": 99
  },
  {
    "city": "Logan",
    "state": "UT",
    "category": "Signature",
    "lat": 41.76877089398383,
    "lon": -111.74798644279105,
    "interview_count": 99
  },
  {
    "city": "Naperville",
    "state": "IL",
    "category": "User Generated",
    "lat": 41.75040714135462,
    "lon": -88.15908246748955,
    "interview_count": 99
  },
  {
    "city": "Bismarck",
    "state": "ND",
    "category": "Signature",
    "lat": 46.81809176573314,
    "lon": -100.72919161563351,
    "interview_count": 98
  },
  {
    "city": "Brattleboro",
    "state": "VT",
    "category": "Signature",
    "lat": 42.84356279875712,
    "lon": -72.6589229200672,
    "interview_count": 98
  },
  {
    "city": "Jersey City",
    "state": "NJ",
    "category": "User Generated",
    "lat": 40.72367632643523,
    "lon": -74.05415769471655,
    "interview_count": 98
  },
  {
    "city": "Little Rock",
    "state": "AR",
    "category": "User Generated",
    "lat": 34.72739686404901,
    "lon": -92.36659071459616,
    "interview_count": 98
  },
  {
    "city": "Arlington",
    "state": "VA",
    "category": "User Generated",
    "lat": 38.87787163125749,
    "lon": -77.09904650076987,
    "interview_count": 98
  },
  {
    "city": "Chesterfield",
    "state": "MO",
    "category": "User Generated",
    "lat": 38.6514291957029,
    "lon": -90.53727564594195,
    "interview_count": 97
  },
  {
    "city": "Oklahoma City",
    "state": "OK",
    "category": "User Generated",
    "lat": 35.48026527009463,
    "lon": -97.52573860639485,
    "interview_count": 96
  },
  {
    "city": "Lynchburg",
    "state": "VA",
    "category": "User Generated",
    "lat": 37.376805033568445,
    "lon": -79.16928063401936,
    "interview_count": 96
  },
  {
    "city": "Providence",
    "state": "RI",
    "category": "User Generated",
    "lat": 41.82851896125325,
    "lon": -71.43405954879842,
    "interview_count": 96
  },
  {
    "city": "Green Bay",
    "state": "WI",
    "category": "Signature",
    "lat": 44.52396936215151,
    "lon": -87.93559735374173,
    "interview_count": 96
  },
  {
    "city": "Bloomfield Hills",
    "state": "MI",
    "category": "User Generated",
    "lat": 42.587429211716994,
    "lon": -83.23441585150941,
    "interview_count": 96
  },
  {
    "city": "Batavia",
    "state": "OH",
    "category": "User Generated",
    "lat": 39.09456325279039,
    "lon": -84.14009653267739,
    "interview_count": 96
  },
  {
    "city": "Tyler",
    "state": "TX",
    "category": "User Generated",
    "lat": 32.33759693453689,
    "lon": -95.30251429233815,
    "interview_count": 95
  },
  {
    "city": "Rocklin",
    "state": "CA",
    "category": "User Generated",
    "lat": 38.80639842251507,
    "lon": -121.25450630865713,
    "interview_count": 95
  },
  {
    "city": "Portales",
    "state": "NM",
    "category": "Signature",
    "lat": 34.128434926960004,
    "lon": -103.3183778880798,
    "interview_count": 95
  },
  {
    "city": "Norman",
    "state": "OK",
    "category": "User Generated",
    "lat": 35.227895831101264,
    "lon": -97.42166065233766,
    "interview_count": 95
  },
  {
    "city": "Greenville",
    "state": "MI",
    "category": "User Generated",
    "lat": 43.182678295482205,
    "lon": -85.25944068117643,
    "interview_count": 94
  },
  {
    "city": "Scottsdale",
    "state": "AZ",
    "category": "User Generated",
    "lat": 33.618035540102454,
    "lon": -111.87363632074197,
    "interview_count": 94
  },
  {
    "city": "Lewisville",
    "state": "TX",
    "category": "User Generated",
    "lat": 33.032124486387715,
    "lon": -96.98992393359731,
    "interview_count": 94
  },
  {
    "city": "Rochester",
    "state": "NY",
    "category": "Signature",
    "lat": 43.166180631052384,
    "lon": -77.63842590433102,
    "interview_count": 94
  },
  {
    "city": "tulsa",
    "state": "OK",
    "category": "User Generated",
    "lat": 36.132593369841636,
    "lon": -95.92270611305918,
    "interview_count": 93
  },
  {
    "city": "Rochester",
    "state": "MN",
    "category": "User Generated",
    "lat": 44.032228380221376,
    "lon": -92.46347415180958,
    "interview_count": 93
  },
  {
    "city": "Huntersville",
    "state": "NC",
    "category": "User Generated",
    "lat": 35.40544606772096,
    "lon": -80.86634366942656,
    "interview_count": 93
  },
  {
    "city": "Fortuna",
    "state": "CA",
    "category": "User Generated",
    "lat": 40.56678761857356,
    "lon": -124.12647064313319,
    "interview_count": 93
  },
  {
    "city": "Huntsville",
    "state": "AL",
    "category": "Signature",
    "lat": 34.708108543901425,
    "lon": -86.62554809671687,
    "interview_count": 92
  },
  {
    "city": "Moscow",
    "state": "ID",
    "category": "User Generated",
    "lat": 46.725396063033024,
    "lon": -116.98054673827045,
    "interview_count": 92
  },
  {
    "city": "Orinda",
    "state": "CA",
    "category": "User Generated",
    "lat": 37.88194849157648,
    "lon": -122.19415242067038,
    "interview_count": 92
  },
  {
    "city": "Mankato",
    "state": "MN",
    "category": "User Generated",
    "lat": 44.13190145133552,
    "lon": -93.97783377279569,
    "interview_count": 91
  },
  {
    "city": "Medford",
    "state": "OR",
    "category": "User Generated",
    "lat": 42.30657888768473,
    "lon": -122.84757921981229,
    "interview_count": 91
  },
  {
    "city": "Fort Wayne",
    "state": "IN",
    "category": "User Generated",
    "lat": 41.07853798476992,
    "lon": -85.14383229325583,
    "interview_count": 90
  },
  {
    "city": "Colorado Springs",
    "state": "CO",
    "category": "User Generated",
    "lat": 38.87019438297266,
    "lon": -104.7484465730882,
    "interview_count": 90
  },
  {
    "city": "Gallup",
    "state": "NM",
    "category": "User Generated",
    "lat": 35.52154672873419,
    "lon": -108.76520416150662,
    "interview_count": 90
  },
  {
    "city": "San Jose",
    "state": "CA",
    "category": "Signature",
    "lat": 37.30386736988569,
    "lon": -121.84387496962856,
    "interview_count": 90
  },
  {
    "city": "Palmdale",
    "state": "CA",
    "category": "User Generated",
    "lat": 34.539418873679644,
    "lon": -118.02721375163068,
    "interview_count": 90
  },
  {
    "city": "Exeter",
    "state": "NH",
    "category": "User Generated",
    "lat": 42.97462752610012,
    "lon": -70.98882718265442,
    "interview_count": 89
  },
  {
    "city": "Tallahassee",
    "state": "FL",
    "category": "Signature",
    "lat": 30.45364110856031,
    "lon": -84.26455368462884,
    "interview_count": 89
  },
  {
    "city": "Parker",
    "state": "CO",
    "category": "User Generated",
    "lat": 39.49960167553846,
    "lon": -104.72530190993012,
    "interview_count": 89
  },
  {
    "city": "Newark",
    "state": "DE",
    "category": "User Generated",
    "lat": 39.68768418241673,
    "lon": -75.74673886455733,
    "interview_count": 89
  },
  {
    "city": "Two Harbors",
    "state": "MN",
    "category": "User Generated",
    "lat": 47.245792735013005,
    "lon": -91.66829402335995,
    "interview_count": 89
  },
  {
    "city": "Lewiston",
    "state": "ID",
    "category": "Signature",
    "lat": 46.227794415033465,
    "lon": -116.90590107628792,
    "interview_count": 88
  },
  {
    "city": "Aurora",
    "state": "CO",
    "category": "User Generated",
    "lat": 39.703155797050904,
    "lon": -104.76352615239199,
    "interview_count": 88
  },
  {
    "city": "Garland",
    "state": "TX",
    "category": "User Generated",
    "lat": 32.90862835677221,
    "lon": -96.63582056289064,
    "interview_count": 88
  },
  {
    "city": "Alameda",
    "state": "CA",
    "category": "User Generated",
    "lat": 37.75598883191776,
    "lon": -122.25992285941263,
    "interview_count": 87
  },
  {
    "city": "Athens",
    "state": "GA",
    "category": "User Generated",
    "lat": 33.9507826337098,
    "lon": -83.38582824014097,
    "interview_count": 87
  },
  {
    "city": "Tacoma",
    "state": "WA",
    "category": "User Generated",
    "lat": 47.24802090680777,
    "lon": -122.46195203738147,
    "interview_count": 87
  },
  {
    "city": "Helena",
    "state": "AL",
    "category": "User Generated",
    "lat": 33.255074646497704,
    "lon": -86.91897707593007,
    "interview_count": 87
  },
  {
    "city": "Rancho Palos Verdes",
    "state": "CA",
    "category": "User Generated",
    "lat": 33.75155193511262,
    "lon": -118.36705103400881,
    "interview_count": 86
  },
  {
    "city": "Little Rock",
    "state": "AR",
    "category": "Signature",
    "lat": 34.72739686404901,
    "lon": -92.36659071459616,
    "interview_count": 86
  },
  {
    "city": "Orange",
    "state": "CA",
    "category": "User Generated",
    "lat": 33.80210989413027,
    "lon": -117.82574340578026,
    "interview_count": 86
  },
  {
    "city": "Surprise",
    "state": "AZ",
    "category": "User Generated",
    "lat": 33.70359053105613,
    "lon": -112.44087819244561,
    "interview_count": 85
  },
  {
    "city": "Allen",
    "state": "TX",
    "category": "User Generated",
    "lat": 33.114627324635116,
    "lon": -96.69411868404536,
    "interview_count": 85
  },
  {
    "city": "Warwick",
    "state": "RI",
    "category": "User Generated",
    "lat": 41.69910150756725,
    "lon": -71.431800782441,
    "interview_count": 84
  },
  {
    "city": "Phenix City",
    "state": "AL",
    "category": "User Generated",
    "lat": 32.4316598051701,
    "lon": -85.09583616994459,
    "interview_count": 84
  },
  {
    "city": "Minneapolis",
    "state": "MN",
    "category": "Signature",
    "lat": 44.95998331622576,
    "lon": -93.26435367283725,
    "interview_count": 84
  },
  {
    "city": "Marysville",
    "state": "OH",
    "category": "User Generated",
    "lat": 40.261126375153914,
    "lon": -83.35810553211378,
    "interview_count": 84
  },
  {
    "city": "glenview",
    "state": "IL",
    "category": "User Generated",
    "lat": 42.08343806973849,
    "lon": -87.82496956090185,
    "interview_count": 83
  },
  {
    "city": "Greenville",
    "state": "SC",
    "category": "User Generated",
    "lat": 34.86070203106901,
    "lon": -82.37167488515398,
    "interview_count": 83
  },
  {
    "city": "Tulsa",
    "state": "OK",
    "category": "Signature",
    "lat": 36.132593369841636,
    "lon": -95.92270611305918,
    "interview_count": 82
  },
  {
    "city": "Olympia",
    "state": "WA",
    "category": "User Generated",
    "lat": 47.09436979396903,
    "lon": -122.95104101089008,
    "interview_count": 82
  },
  {
    "city": "Carnesville",
    "state": "GA",
    "category": "User Generated",
    "lat": 34.36202705245845,
    "lon": -83.29354890914826,
    "interview_count": 82
  },
  {
    "city": "Arlington",
    "state": "OH",
    "category": "User Generated",
    "lat": 40.90120204729988,
    "lon": -83.61547928692998,
    "interview_count": 82
  },
  {
    "city": "Harrisonburg",
    "state": "VA",
    "category": "Signature",
    "lat": 38.44676036910972,
    "lon": -78.86836434390291,
    "interview_count": 81
  },
  {
    "city": "Palo Alto",
    "state": "CA",
    "category": "Signature",
    "lat": 37.427051590410954,
    "lon": -122.14176301592803,
    "interview_count": 81
  },
  {
    "city": "Grants Pass",
    "state": "OR",
    "category": "User Generated",
    "lat": 42.44443118855668,
    "lon": -123.36117084144105,
    "interview_count": 81
  },
  {
    "city": "Eureka",
    "state": "CA",
    "category": "User Generated",
    "lat": 40.80430629438097,
    "lon": -124.14045067697077,
    "interview_count": 80
  },
  {
    "city": "Orange City",
    "state": "IA",
    "category": "User Generated",
    "lat": 43.024395578137934,
    "lon": -96.07703346877503,
    "interview_count": 79
  },
  {
    "city": "Evanston",
    "state": "IL",
    "category": "User Generated",
    "lat": 42.04698753645102,
    "lon": -87.68274278210848,
    "interview_count": 79
  },
  {
    "city": "Folsom",
    "state": "CA",
    "category": "User Generated",
    "lat": 38.68043899379401,
    "lon": -121.1488242516096,
    "interview_count": 79
  },
  {
    "city": "Peoria",
    "state": "AZ",
    "category": "User Generated",
    "lat": 33.66004043293705,
    "lon": -112.26129172675863,
    "interview_count": 79
  },
  {
    "city": "Bend",
    "state": "OR",
    "category": "User Generated",
    "lat": 44.01886114555768,
    "lon": -121.25447358858422,
    "interview_count": 79
  },
  {
    "city": "Mountain View",
    "state": "CA",
    "category": "User Generated",
    "lat": 37.39347483551841,
    "lon": -122.07649708382107,
    "interview_count": 78
  },
  {
    "city": "Fairfield",
    "state": "CA",
    "category": "User Generated",
    "lat": 38.264297038982974,
    "lon": -122.02227343058664,
    "interview_count": 78
  },
  {
    "city": "Oxford",
    "state": "MS",
    "category": "User Generated",
    "lat": 34.33114392530398,
    "lon": -89.48242001074166,
    "interview_count": 78
  },
  {
    "city": "Lubbock",
    "state": "TX",
    "category": "User Generated",
    "lat": 33.564875422221974,
    "lon": -101.88731756989348,
    "interview_count": 78
  },
  {
    "city": "South Milwaukee",
    "state": "WI",
    "category": "User Generated",
    "lat": 42.911866445595024,
    "lon": -87.8594012328634,
    "interview_count": 78
  },
  {
    "city": "Cicero",
    "state": "IL",
    "category": "User Generated",
    "lat": 41.840033265286785,
    "lon": -87.75925507968074,
    "interview_count": 78
  },
  {
    "city": "Santa Clarita",
    "state": "CA",
    "category": "User Generated",
    "lat": 34.41815934957195,
    "lon": -118.49427921557228,
    "interview_count": 78
  },
  {
    "city": "Upper Arlington",
    "state": "OH",
    "category": "User Generated",
    "lat": 40.03591959975909,
    "lon": -83.07451729627975,
    "interview_count": 78
  },
  {
    "city": "Fresno",
    "state": "CA",
    "category": "User Generated",
    "lat": 36.77842409525324,
    "lon": -119.78878955562116,
    "interview_count": 76
  },
  {
    "city": "Williamsburg",
    "state": "KY",
    "category": "User Generated",
    "lat": 36.711589476045006,
    "lon": -84.17280883931944,
    "interview_count": 76
  },
  {
    "city": "Jackson",
    "state": "MS",
    "category": "Signature",
    "lat": 32.33026528998092,
    "lon": -90.19845836128673,
    "interview_count": 76
  },
  {
    "city": "Lafayette",
    "state": "LA",
    "category": "User Generated",
    "lat": 30.209533968409353,
    "lon": -92.03768706178731,
    "interview_count": 75
  },
  {
    "city": "Peoria",
    "state": "IL",
    "category": "User Generated",
    "lat": 40.720705244209924,
    "lon": -89.62774429036477,
    "interview_count": 75
  },
  {
    "city": "Sterling",
    "state": "VA",
    "category": "User Generated",
    "lat": 39.01242642857186,
    "lon": -77.39586713594359,
    "interview_count": 75
  },
  {
    "city": "Conway",
    "state": "AR",
    "category": "User Generated",
    "lat": 35.06893784535837,
    "lon": -92.43405693895123,
    "interview_count": 75
  },
  {
    "city": "Mesquite",
    "state": "TX",
    "category": "User Generated",
    "lat": 32.77081333625882,
    "lon": -96.6002666688356,
    "interview_count": 75
  },
  {
    "city": "Amarillo",
    "state": "TX",
    "category": "Signature",
    "lat": 35.19914189421263,
    "lon": -101.852631573765,
    "interview_count": 74
  },
  {
    "city": "Gilbert",
    "state": "AZ",
    "category": "User Generated",
    "lat": 33.31433100585261,
    "lon": -111.74472147296945,
    "interview_count": 74
  },
  {
    "city": "Springfield",
    "state": "MO",
    "category": "User Generated",
    "lat": 37.19080385641553,
    "lon": -93.28942445258159,
    "interview_count": 74
  },
  {
    "city": "Shakopee",
    "state": "MN",
    "category": "User Generated",
    "lat": 44.754994605828195,
    "lon": -93.5171788931716,
    "interview_count": 74
  },
  {
    "city": "Kalamazoo",
    "state": "MI",
    "category": "User Generated",
    "lat": 42.30056997943801,
    "lon": -85.5982141626283,
    "interview_count": 74
  },
  {
    "city": "Ypsilanti",
    "state": "MI",
    "category": "User Generated",
    "lat": 42.23623689913331,
    "lon": -83.60861383172153,
    "interview_count": 74
  },
  {
    "city": "Geneseo",
    "state": "NY",
    "category": "User Generated",
    "lat": 42.79729780787652,
    "lon": -77.76880274970654,
    "interview_count": 74
  },
  {
    "city": "Glendale",
    "state": "CA",
    "category": "User Generated",
    "lat": 34.172223181718444,
    "lon": -118.25157326278068,
    "interview_count": 73
  },
  {
    "city": "Fort Myers",
    "state": "FL",
    "category": "User Generated",
    "lat": 26.57908009381144,
    "lon": -81.81549055946071,
    "interview_count": 73
  },
  {
    "city": "New Ulm",
    "state": "MN",
    "category": "User Generated",
    "lat": 44.307535275954464,
    "lon": -94.46876905263143,
    "interview_count": 73
  },
  {
    "city": "Marfa",
    "state": "TX",
    "category": "Signature",
    "lat": 30.119632006832028,
    "lon": -104.30374460502424,
    "interview_count": 73
  },
  {
    "city": "Morrilton",
    "state": "AR",
    "category": "User Generated",
    "lat": 35.155131984300105,
    "lon": -92.77276915201216,
    "interview_count": 72
  },
  {
    "city": "Ames",
    "state": "IA",
    "category": "User Generated",
    "lat": 42.032345525430976,
    "lon": -93.64499636867465,
    "interview_count": 72
  },
  {
    "city": "Wilmington",
    "state": "DE",
    "category": "User Generated",
    "lat": 39.75785781170166,
    "lon": -75.54546350094942,
    "interview_count": 72
  },
  {
    "city": "Robesonia",
    "state": "PA",
    "category": "User Generated",
    "lat": 40.35951538768948,
    "lon": -76.14214361018342,
    "interview_count": 72
  },
  {
    "city": "Shreveport",
    "state": "LA",
    "category": "User Generated",
    "lat": 32.435285093276285,
    "lon": -93.79178024002688,
    "interview_count": 72
  },
  {
    "city": "mckinney",
    "state": "TX",
    "category": "User Generated",
    "lat": 33.18925025256252,
    "lon": -96.65615931579748,
    "interview_count": 72
  },
  {
    "city": "Lowell",
    "state": "MA",
    "category": "User Generated",
    "lat": 42.63161589205753,
    "lon": -71.32774543987925,
    "interview_count": 70
  },
  {
    "city": "Winter Park",
    "state": "FL",
    "category": "User Generated",
    "lat": 28.599783787601265,
    "lon": -81.35235586842066,
    "interview_count": 70
  },
  {
    "city": "Cary",
    "state": "NC",
    "category": "User Generated",
    "lat": 35.775848020711834,
    "lon": -78.81163500533467,
    "interview_count": 70
  },
  {
    "city": "Larkspur",
    "state": "CA",
    "category": "User Generated",
    "lat": 37.937216118904495,
    "lon": -122.53508696709274,
    "interview_count": 70
  },
  {
    "city": "Garden Grove",
    "state": "CA",
    "category": "User Generated",
    "lat": 33.77702798185498,
    "lon": -117.96829557107688,
    "interview_count": 70
  },
  {
    "city": "Springfield",
    "state": "IL",
    "category": "User Generated",
    "lat": 39.79111946523674,
    "lon": -89.65356858206381,
    "interview_count": 70
  },
  {
    "city": "Morro Bay",
    "state": "CA",
    "category": "User Generated",
    "lat": 35.399816914926184,
    "lon": -120.80587753676025,
    "interview_count": 70
  },
  {
    "city": "Lancaster",
    "state": "PA",
    "category": "User Generated",
    "lat": 40.03349423962902,
    "lon": -76.30459850901164,
    "interview_count": 70
  },
  {
    "city": "Fort Collins",
    "state": "CO",
    "category": "User Generated",
    "lat": 40.568424572690134,
    "lon": -105.14872262381894,
    "interview_count": 69
  },
  {
    "city": "Whitewater",
    "state": "WI",
    "category": "User Generated",
    "lat": 42.807735720682714,
    "lon": -88.73130536312084,
    "interview_count": 69
  },
  {
    "city": "Santa Barbara",
    "state": "CA",
    "category": "User Generated",
    "lat": 34.44774950881631,
    "lon": -119.71911353398322,
    "interview_count": 69
  },
  {
    "city": "Opelika",
    "state": "AL",
    "category": "User Generated",
    "lat": 32.6156571238926,
    "lon": -85.36563921723828,
    "interview_count": 68
  },
  {
    "city": "Berkeley",
    "state": "CA",
    "category": "User Generated",
    "lat": 37.87662267640915,
    "lon": -122.27395351652882,
    "interview_count": 68
  },
  {
    "city": "Inglewood",
    "state": "CA",
    "category": "User Generated",
    "lat": 33.956373541517735,
    "lon": -118.3441538655309,
    "interview_count": 68
  },
  {
    "city": "Farmington",
    "state": "MO",
    "category": "User Generated",
    "lat": 37.75445960406564,
    "lon": -90.36523390288613,
    "interview_count": 68
  },
  {
    "city": "Chelsea",
    "state": "MI",
    "category": "User Generated",
    "lat": 42.31148841819321,
    "lon": -84.0383288413892,
    "interview_count": 67
  },
  {
    "city": "Wheeling",
    "state": "WV",
    "category": "User Generated",
    "lat": 40.06925171387599,
    "lon": -80.65091043281143,
    "interview_count": 67
  },
  {
    "city": "Cedar Rapids",
    "state": "IA",
    "category": "User Generated",
    "lat": 41.98753267013588,
    "lon": -91.67732904417176,
    "interview_count": 67
  },
  {
    "city": "Sioux Falls",
    "state": "SD",
    "category": "Signature",
    "lat": 43.538390126466474,
    "lon": -96.73656074848284,
    "interview_count": 67
  },
  {
    "city": "Valparaiso",
    "state": "IN",
    "category": "User Generated",
    "lat": 41.46112237208129,
    "lon": -87.06274699291305,
    "interview_count": 67
  },
  {
    "city": "La Puente",
    "state": "CA",
    "category": "User Generated",
    "lat": 34.029121574342035,
    "lon": -117.93734585423422,
    "interview_count": 67
  },
  {
    "city": "Silver Spring",
    "state": "MD",
    "category": "User Generated",
    "lat": 39.01192997119608,
    "lon": -77.02278584186794,
    "interview_count": 66
  },
  {
    "city": "Sandy Springs",
    "state": "GA",
    "category": "User Generated",
    "lat": 33.931032464459555,
    "lon": -84.36469185512813,
    "interview_count": 66
  },
  {
    "city": "Northampton",
    "state": "PA",
    "category": "User Generated",
    "lat": 40.7179220463554,
    "lon": -75.47934919395956,
    "interview_count": 66
  },
  {
    "city": "Lafayette",
    "state": "LA",
    "category": "Signature",
    "lat": 30.209533968409353,
    "lon": -92.03768706178731,
    "interview_count": 65
  },
  {
    "city": "Waukesha",
    "state": "WI",
    "category": "Signature",
    "lat": 42.998757606279845,
    "lon": -88.25885703788082,
    "interview_count": 65
  },
  {
    "city": "Edmond",
    "state": "OK",
    "category": "User Generated",
    "lat": 35.697577578059125,
    "lon": -97.45410999411105,
    "interview_count": 65
  },
  {
    "city": "miami",
    "state": "FL",
    "category": "User Generated",
    "lat": 25.781195477560136,
    "lon": -80.216173222196,
    "interview_count": 64
  },
  {
    "city": "Lake Geneva",
    "state": "WI",
    "category": "User Generated",
    "lat": 42.570730380938706,
    "lon": -88.45024748443097,
    "interview_count": 64
  },
  {
    "city": "Purcellville",
    "state": "VA",
    "category": "User Generated",
    "lat": 39.166481616312645,
    "lon": -77.72748834888728,
    "interview_count": 64
  },
  {
    "city": "Novi",
    "state": "MI",
    "category": "User Generated",
    "lat": 42.46931081196194,
    "lon": -83.4979140493733,
    "interview_count": 64
  },
  {
    "city": "Topeka",
    "state": "KS",
    "category": "User Generated",
    "lat": 39.03409684229344,
    "lon": -95.70303649050727,
    "interview_count": 64
  },
  {
    "city": "Houston",
    "state": "TX",
    "category": "Signature",
    "lat": 29.80010925137078,
    "lon": -95.42508922178831,
    "interview_count": 63
  },
  {
    "city": "Fredericksburg",
    "state": "VA",
    "category": "User Generated",
    "lat": 38.26807975035419,
    "lon": -77.50255379371349,
    "interview_count": 63
  },
  {
    "city": "Northbrook",
    "state": "IL",
    "category": "User Generated",
    "lat": 42.12662219755374,
    "lon": -87.84234950975596,
    "interview_count": 63
  },
  {
    "city": "Joplin",
    "state": "MO",
    "category": "User Generated",
    "lat": 37.06506653317989,
    "lon": -94.50435732989908,
    "interview_count": 63
  },
  {
    "city": "Vilonia",
    "state": "AR",
    "category": "User Generated",
    "lat": 35.09999337637222,
    "lon": -92.2080484325014,
    "interview_count": 63
  },
  {
    "city": "Streetsboro",
    "state": "OH",
    "category": "User Generated",
    "lat": 41.23943655236191,
    "lon": -81.34728365641627,
    "interview_count": 62
  },
  {
    "city": "Lacey",
    "state": "WA",
    "category": "User Generated",
    "lat": 47.062743048073536,
    "lon": -122.79137254194825,
    "interview_count": 62
  },
  {
    "city": "Wichita",
    "state": "KS",
    "category": "User Generated",
    "lat": 37.69593590677779,
    "lon": -97.31640006371792,
    "interview_count": 62
  },
  {
    "city": "Radford",
    "state": "VA",
    "category": "User Generated",
    "lat": 37.119584789405216,
    "lon": -80.5587610985233,
    "interview_count": 61
  },
  {
    "city": "Wilmette",
    "state": "IL",
    "category": "User Generated",
    "lat": 42.078788930036,
    "lon": -87.72032685645097,
    "interview_count": 61
  },
  {
    "city": "West Fargo",
    "state": "ND",
    "category": "User Generated",
    "lat": 46.862762029901305,
    "lon": -96.93126591664323,
    "interview_count": 61
  },
  {
    "city": "Savannah",
    "state": "GA",
    "category": "User Generated",
    "lat": 32.03733603704334,
    "lon": -81.1256443929746,
    "interview_count": 61
  },
  {
    "city": "henderson",
    "state": "NV",
    "category": "User Generated",
    "lat": 36.008073675209,
    "lon": -115.04355723767381,
    "interview_count": 61
  },
  {
    "city": "Cumming",
    "state": "GA",
    "category": "User Generated",
    "lat": 34.20890637521859,
    "lon": -84.13679231810872,
    "interview_count": 60
  },
  {
    "city": "Canby",
    "state": "OR",
    "category": "User Generated",
    "lat": 45.217945485046634,
    "lon": -122.67278448016292,
    "interview_count": 60
  },
  {
    "city": "Tiburon",
    "state": "CA",
    "category": "User Generated",
    "lat": 37.88359588678783,
    "lon": -122.46396374403605,
    "interview_count": 60
  },
  {
    "city": "Carlsbad",
    "state": "CA",
    "category": "User Generated",
    "lat": 33.12569289034418,
    "lon": -117.28575267715658,
    "interview_count": 60
  },
  {
    "city": "Plymouth",
    "state": "NH",
    "category": "User Generated",
    "lat": 43.72968048784086,
    "lon": -71.71157303710466,
    "interview_count": 60
  },
  {
    "city": "St. Paul",
    "state": "MN",
    "category": "User Generated",
    "lat": 44.95343711536908,
    "lon": -93.11515175055877,
    "interview_count": 60
  },
  {
    "city": "Port Jefferson",
    "state": "NY",
    "category": "User Generated",
    "lat": 40.95532617843699,
    "lon": -73.06556384080208,
    "interview_count": 60
  },
  {
    "city": "Dayton",
    "state": "OH",
    "category": "User Generated",
    "lat": 39.76860360450869,
    "lon": -84.20477070049732,
    "interview_count": 59
  },
  {
    "city": "Albany",
    "state": "NY",
    "category": "User Generated",
    "lat": 42.66295153870017,
    "lon": -73.793113197565,
    "interview_count": 59
  },
  {
    "city": "Millbrae",
    "state": "CA",
    "category": "User Generated",
    "lat": 37.5997104507512,
    "lon": -122.40330009200817,
    "interview_count": 59
  },
  {
    "city": "Fullerton",
    "state": "CA",
    "category": "User Generated",
    "lat": 33.88262599369123,
    "lon": -117.92540331848777,
    "interview_count": 59
  },
  {
    "city": "Wauwatosa",
    "state": "WI",
    "category": "User Generated",
    "lat": 43.0492708895665,
    "lon": -88.02194374765747,
    "interview_count": 58
  },
  {
    "city": "mesa",
    "state": "AZ",
    "category": "User Generated",
    "lat": 33.42119172068865,
    "lon": -111.73671029617081,
    "interview_count": 58
  },
  {
    "city": "Gardena",
    "state": "CA",
    "category": "User Generated",
    "lat": 33.89654617206922,
    "lon": -118.30720608248066,
    "interview_count": 58
  },
  {
    "city": "Lincoln City",
    "state": "OR",
    "category": "User Generated",
    "lat": 44.9120916043065,
    "lon": -123.96903928170212,
    "interview_count": 58
  },
  {
    "city": "Westlake",
    "state": "OH",
    "category": "User Generated",
    "lat": 41.452440293571506,
    "lon": -81.92942779754489,
    "interview_count": 58
  },
  {
    "city": "Kalispell",
    "state": "MT",
    "category": "Signature",
    "lat": 48.22886060904331,
    "lon": -114.40541112321002,
    "interview_count": 58
  },
  {
    "city": "Kendall",
    "state": "FL",
    "category": "User Generated",
    "lat": 25.658769563915776,
    "lon": -80.35918892690466,
    "interview_count": 58
  },
  {
    "city": "Flower mound",
    "state": "TX",
    "category": "User Generated",
    "lat": 33.029674963821755,
    "lon": -97.09078390421621,
    "interview_count": 57
  },
  {
    "city": "San Marcos",
    "state": "CA",
    "category": "User Generated",
    "lat": 33.14059104368474,
    "lon": -117.16644977961403,
    "interview_count": 57
  },
  {
    "city": "Watsonville",
    "state": "CA",
    "category": "User Generated",
    "lat": 36.935852628189984,
    "lon": -121.78447609464621,
    "interview_count": 57
  },
  {
    "city": "Pottstown",
    "state": "PA",
    "category": "User Generated",
    "lat": 40.258850170286244,
    "lon": -75.61599268578878,
    "interview_count": 57
  },
  {
    "city": "West Lafayette",
    "state": "IN",
    "category": "User Generated",
    "lat": 40.45503565020475,
    "lon": -86.95130650165049,
    "interview_count": 57
  },
  {
    "city": "Rancho Mission Viejo",
    "state": "CA",
    "category": "User Generated",
    "lat": 33.51500949836089,
    "lon": -117.58061313771339,
    "interview_count": 56
  },
  {
    "city": "Naples",
    "state": "FL",
    "category": "User Generated",
    "lat": 26.139602526305865,
    "lon": -81.77050487552023,
    "interview_count": 56
  },
  {
    "city": "Syracuse",
    "state": "NY",
    "category": "User Generated",
    "lat": 43.039110845519154,
    "lon": -76.1478470067236,
    "interview_count": 56
  },
  {
    "city": "Kansas City",
    "state": "KS",
    "category": "User Generated",
    "lat": 39.10480443354648,
    "lon": -94.68326438724041,
    "interview_count": 56
  },
  {
    "city": "Birmingham",
    "state": "MI",
    "category": "User Generated",
    "lat": 42.54381040402169,
    "lon": -83.2176523654135,
    "interview_count": 56
  },
  {
    "city": "Pittsboro",
    "state": "NC",
    "category": "User Generated",
    "lat": 35.75444329061872,
    "lon": -79.1964700800516,
    "interview_count": 56
  },
  {
    "city": "Dearborn",
    "state": "MI",
    "category": "User Generated",
    "lat": 42.31351776375938,
    "lon": -83.21645467337169,
    "interview_count": 56
  },
  {
    "city": "Quincy",
    "state": "MA",
    "category": "User Generated",
    "lat": 42.26642673877871,
    "lon": -71.01796992989715,
    "interview_count": 55
  },
  {
    "city": "Oxnard",
    "state": "CA",
    "category": "User Generated",
    "lat": 34.042237409757085,
    "lon": -119.22387890602602,
    "interview_count": 55
  },
  {
    "city": "Bridgeport",
    "state": "CT",
    "category": "User Generated",
    "lat": 41.184130995058176,
    "lon": -73.19075893411592,
    "interview_count": 55
  },
  {
    "city": "Hammond",
    "state": "LA",
    "category": "User Generated",
    "lat": 30.50816828923353,
    "lon": -90.47014744738458,
    "interview_count": 55
  },
  {
    "city": "Denver",
    "state": "CO",
    "category": "Signature",
    "lat": 39.72507607362303,
    "lon": -104.95473912214919,
    "interview_count": 55
  },
  {
    "city": "San diego",
    "state": "CA",
    "category": "User Generated",
    "lat": 32.795794851511275,
    "lon": -117.1466625798572,
    "interview_count": 55
  },
  {
    "city": "Gurnee",
    "state": "IL",
    "category": "User Generated",
    "lat": 42.37495850269163,
    "lon": -87.94113140701921,
    "interview_count": 54
  },
  {
    "city": "Troy",
    "state": "MI",
    "category": "User Generated",
    "lat": 42.5793173745527,
    "lon": -83.14777224273662,
    "interview_count": 54
  },
  {
    "city": "Sarasota",
    "state": "FL",
    "category": "User Generated",
    "lat": 27.336342087998766,
    "lon": -82.53839730636344,
    "interview_count": 54
  },
  {
    "city": "Niskayuna",
    "state": "NY",
    "category": "User Generated",
    "lat": 42.79692915637242,
    "lon": -73.86784642096855,
    "interview_count": 54
  },
  {
    "city": "Mount Pleasant",
    "state": "MI",
    "category": "User Generated",
    "lat": 43.600576297610736,
    "lon": -84.7846013825671,
    "interview_count": 54
  },
  {
    "city": "Plymouth",
    "state": "MI",
    "category": "User Generated",
    "lat": 42.36759684435353,
    "lon": -83.53268438514887,
    "interview_count": 53
  },
  {
    "city": "Durham",
    "state": "NC",
    "category": "Signature",
    "lat": 36.003610215449115,
    "lon": -78.89960826170271,
    "interview_count": 53
  },
  {
    "city": "Hanover",
    "state": "NH",
    "category": "Signature",
    "lat": 43.72377764384669,
    "lon": -72.1956405165023,
    "interview_count": 53
  },
  {
    "city": "Owasso",
    "state": "OK",
    "category": "User Generated",
    "lat": 36.27733076945436,
    "lon": -95.82003340968647,
    "interview_count": 53
  },
  {
    "city": "Evergreen Park",
    "state": "IL",
    "category": "Signature",
    "lat": 41.72200142197449,
    "lon": -87.70244573108266,
    "interview_count": 53
  },
  {
    "city": "Ogden",
    "state": "UT",
    "category": "Signature",
    "lat": 41.19318627869095,
    "lon": -111.92166567695267,
    "interview_count": 53
  },
  {
    "city": "Wernersville",
    "state": "PA",
    "category": "User Generated",
    "lat": 40.34228337368861,
    "lon": -76.08867925087849,
    "interview_count": 53
  },
  {
    "city": "Dover",
    "state": "NH",
    "category": "User Generated",
    "lat": 43.18212074932835,
    "lon": -70.91264260722565,
    "interview_count": 53
  },
  {
    "city": "San Mateo",
    "state": "CA",
    "category": "User Generated",
    "lat": 37.551058354525736,
    "lon": -122.31926114751562,
    "interview_count": 53
  },
  {
    "city": "san diego",
    "state": "CA",
    "category": "User Generated",
    "lat": 32.795794851511275,
    "lon": -117.1466625798572,
    "interview_count": 52
  },
  {
    "city": "San jose",
    "state": "CA",
    "category": "User Generated",
    "lat": 37.30386736988569,
    "lon": -121.84387496962856,
    "interview_count": 52
  },
  {
    "city": "Brunswick",
    "state": "OH",
    "category": "User Generated",
    "lat": 41.243864561425895,
    "lon": -81.82864153381651,
    "interview_count": 52
  },
  {
    "city": "Laredo",
    "state": "TX",
    "category": "User Generated",
    "lat": 27.564876868193508,
    "lon": -99.45464464886402,
    "interview_count": 52
  },
  {
    "city": "Charleston",
    "state": "SC",
    "category": "User Generated",
    "lat": 32.79046613956808,
    "lon": -79.97451039491585,
    "interview_count": 52
  },
  {
    "city": "Provo",
    "state": "UT",
    "category": "User Generated",
    "lat": 40.25656597984438,
    "lon": -111.6361414638823,
    "interview_count": 51
  },
  {
    "city": "hobart",
    "state": "IN",
    "category": "User Generated",
    "lat": 41.517620255648616,
    "lon": -87.24467108755874,
    "interview_count": 51
  },
  {
    "city": "Littleton",
    "state": "CO",
    "category": "User Generated",
    "lat": 39.59295709830962,
    "lon": -105.0094757616608,
    "interview_count": 51
  },
  {
    "city": "Forestville",
    "state": "CA",
    "category": "User Generated",
    "lat": 38.49108375773018,
    "lon": -122.9142182170462,
    "interview_count": 51
  },
  {
    "city": "Duluth",
    "state": "GA",
    "category": "User Generated",
    "lat": 33.976868018876644,
    "lon": -84.14783935966679,
    "interview_count": 51
  },
  {
    "city": "Duluth",
    "state": "MN",
    "category": "User Generated",
    "lat": 46.78181914828071,
    "lon": -92.09980141330027,
    "interview_count": 51
  },
  {
    "city": "Andover",
    "state": "MA",
    "category": "User Generated",
    "lat": 42.658999608527644,
    "lon": -71.12591238313507,
    "interview_count": 51
  },
  {
    "city": "Bellevue",
    "state": "WA",
    "category": "User Generated",
    "lat": 47.602145679934814,
    "lon": -122.15581873257709,
    "interview_count": 51
  },
  {
    "city": "Herndon",
    "state": "VA",
    "category": "User Generated",
    "lat": 38.980771373834955,
    "lon": -77.38038871435138,
    "interview_count": 51
  },
  {
    "city": "Columbia City",
    "state": "IN",
    "category": "User Generated",
    "lat": 41.15174995244243,
    "lon": -85.47649482104335,
    "interview_count": 51
  },
  {
    "city": "Charleston",
    "state": "WV",
    "category": "User Generated",
    "lat": 38.347023746585634,
    "lon": -81.61459627501678,
    "interview_count": 51
  },
  {
    "city": "zionsville",
    "state": "IN",
    "category": "User Generated",
    "lat": 40.060533455138724,
    "lon": -86.25746510633043,
    "interview_count": 51
  },
  {
    "city": "Beaverton",
    "state": "OR",
    "category": "User Generated",
    "lat": 45.4845340931211,
    "lon": -122.82067906785564,
    "interview_count": 51
  },
  {
    "city": "Chevy Chase",
    "state": "MD",
    "category": "User Generated",
    "lat": 38.9836549763056,
    "lon": -77.0785242077616,
    "interview_count": 50
  },
  {
    "city": "St. George",
    "state": "UT",
    "category": "Signature",
    "lat": 37.09213350481045,
    "lon": -113.59338477938823,
    "interview_count": 50
  },
  {
    "city": "Winona",
    "state": "MN",
    "category": "User Generated",
    "lat": 44.048770618101145,
    "lon": -91.70744208034264,
    "interview_count": 50
  },
  {
    "city": "Stamford",
    "state": "CT",
    "category": "User Generated",
    "lat": 41.084961282242595,
    "lon": -73.5572703226857,
    "interview_count": 50
  },
  {
    "city": "Tempe",
    "state": "AZ",
    "category": "User Generated",
    "lat": 33.3810392708219,
    "lon": -111.93259107312362,
    "interview_count": 49
  },
  {
    "city": "Seguin",
    "state": "TX",
    "category": "User Generated",
    "lat": 29.53301817234947,
    "lon": -97.93831276490725,
    "interview_count": 49
  },
  {
    "city": "Lake Oswego",
    "state": "OR",
    "category": "User Generated",
    "lat": 45.41118242788674,
    "lon": -122.70544640995321,
    "interview_count": 49
  },
  {
    "city": "Park Rapids",
    "state": "MN",
    "category": "User Generated",
    "lat": 47.023510858520496,
    "lon": -95.09418614376771,
    "interview_count": 49
  },
  {
    "city": "Battle Creek",
    "state": "NE",
    "category": "User Generated",
    "lat": 41.97002158338968,
    "lon": -97.60877640433469,
    "interview_count": 49
  },
  {
    "city": "brooklyn",
    "state": "NY",
    "category": "User Generated",
    "lat": 40.72838682757115,
    "lon": -73.92327837787745,
    "interview_count": 49
  },
  {
    "city": "Gaithersburg",
    "state": "MD",
    "category": "User Generated",
    "lat": 39.13295178304665,
    "lon": -77.21754590364817,
    "interview_count": 49
  },
  {
    "city": "Richmond",
    "state": "IN",
    "category": "User Generated",
    "lat": 39.83371555906302,
    "lon": -84.89001135264598,
    "interview_count": 49
  },
  {
    "city": "Corte Madera",
    "state": "CA",
    "category": "User Generated",
    "lat": 37.9331102056953,
    "lon": -122.49915002880773,
    "interview_count": 49
  },
  {
    "city": "Tustin",
    "state": "CA",
    "category": "User Generated",
    "lat": 33.73259262137894,
    "lon": -117.8085753202707,
    "interview_count": 48
  },
  {
    "city": "Bowie",
    "state": "MD",
    "category": "User Generated",
    "lat": 38.95688615946935,
    "lon": -76.72729626999197,
    "interview_count": 48
  },
  {
    "city": "Lafayette",
    "state": "IN",
    "category": "Signature",
    "lat": 40.42596942331444,
    "lon": -86.84338120760219,
    "interview_count": 48
  },
  {
    "city": "Conway",
    "state": "SC",
    "category": "User Generated",
    "lat": 33.82482043325441,
    "lon": -79.05945189984251,
    "interview_count": 48
  },
  {
    "city": "Dubuque",
    "state": "IA",
    "category": "User Generated",
    "lat": 42.50240656675038,
    "lon": -90.7134587248253,
    "interview_count": 48
  },
  {
    "city": "san jose",
    "state": "CA",
    "category": "User Generated",
    "lat": 37.30386736988569,
    "lon": -121.84387496962856,
    "interview_count": 47
  },
  {
    "city": "Milford Center",
    "state": "OH",
    "category": "User Generated",
    "lat": 40.16931517679772,
    "lon": -83.44971430364417,
    "interview_count": 47
  },
  {
    "city": "Wellesley",
    "state": "MA",
    "category": "Signature",
    "lat": 42.30095900085452,
    "lon": -71.28179729125347,
    "interview_count": 47
  },
  {
    "city": "Burleson",
    "state": "TX",
    "category": "User Generated",
    "lat": 32.526034127470524,
    "lon": -97.30493305474607,
    "interview_count": 47
  },
  {
    "city": "Arlington",
    "state": "TX",
    "category": "User Generated",
    "lat": 32.706671352052176,
    "lon": -97.11905706872437,
    "interview_count": 47
  },
  {
    "city": "Oxford",
    "state": "MI",
    "category": "User Generated",
    "lat": 42.84544192008321,
    "lon": -83.28786443620051,
    "interview_count": 47
  },
  {
    "city": "Des Moines",
    "state": "IA",
    "category": "User Generated",
    "lat": 41.5905527167707,
    "lon": -93.62603229844231,
    "interview_count": 46
  },
  {
    "city": "Alamo",
    "state": "CA",
    "category": "User Generated",
    "lat": 37.85428965496697,
    "lon": -122.00659864744841,
    "interview_count": 46
  },
  {
    "city": "Walla Walla",
    "state": "WA",
    "category": "User Generated",
    "lat": 46.08732516886831,
    "lon": -118.31248910345974,
    "interview_count": 46
  },
  {
    "city": "los angeles",
    "state": "CA",
    "category": "User Generated",
    "lat": 34.08984975590782,
    "lon": -118.3761524984978,
    "interview_count": 46
  },
  {
    "city": "Redwood City",
    "state": "CA",
    "category": "User Generated",
    "lat": 37.496798380109325,
    "lon": -122.23072049010561,
    "interview_count": 46
  },
  {
    "city": "Palatine",
    "state": "IL",
    "category": "User Generated",
    "lat": 42.11977463616236,
    "lon": -88.04570015471705,
    "interview_count": 46
  },
  {
    "city": "Schaumburg",
    "state": "IL",
    "category": "User Generated",
    "lat": 42.040896805843694,
    "lon": -88.08648086536927,
    "interview_count": 46
  },
  {
    "city": "Claremont",
    "state": "CA",
    "category": "User Generated",
    "lat": 34.19122211847561,
    "lon": -117.7035981015893,
    "interview_count": 45
  },
  {
    "city": "Aurora",
    "state": "OH",
    "category": "User Generated",
    "lat": 41.31643582065476,
    "lon": -81.34240261303664,
    "interview_count": 45
  },
  {
    "city": "Buena Park",
    "state": "CA",
    "category": "User Generated",
    "lat": 33.86004581847941,
    "lon": -118.00263256341472,
    "interview_count": 45
  },
  {
    "city": "Hilliard",
    "state": "OH",
    "category": "User Generated",
    "lat": 40.02197701004371,
    "lon": -83.18469412822111,
    "interview_count": 45
  },
  {
    "city": "Kalispell",
    "state": "MT",
    "category": "User Generated",
    "lat": 48.22886060904331,
    "lon": -114.40541112321002,
    "interview_count": 45
  },
  {
    "city": "Lawrenceville",
    "state": "GA",
    "category": "User Generated",
    "lat": 33.958436901905976,
    "lon": -84.02338173294326,
    "interview_count": 45
  },
  {
    "city": "College Station",
    "state": "TX",
    "category": "Signature",
    "lat": 30.596318689179764,
    "lon": -96.31319832919107,
    "interview_count": 45
  },
  {
    "city": "New Braunfels",
    "state": "TX",
    "category": "User Generated",
    "lat": 29.69225954956327,
    "lon": -98.06877817562119,
    "interview_count": 45
  },
  {
    "city": "Skokie",
    "state": "IL",
    "category": "User Generated",
    "lat": 42.03977408367868,
    "lon": -87.73440945602324,
    "interview_count": 45
  },
  {
    "city": "Los angeles",
    "state": "CA",
    "category": "User Generated",
    "lat": 34.08984975590782,
    "lon": -118.3761524984978,
    "interview_count": 44
  },
  {
    "city": "Anderson",
    "state": "IN",
    "category": "User Generated",
    "lat": 40.10620610391466,
    "lon": -85.68677690538146,
    "interview_count": 44
  },
  {
    "city": "Daly City",
    "state": "CA",
    "category": "User Generated",
    "lat": 37.686002197175895,
    "lon": -122.46428795383318,
    "interview_count": 44
  },
  {
    "city": "Chesapeake",
    "state": "VA",
    "category": "User Generated",
    "lat": 36.75040821243158,
    "lon": -76.30054537685027,
    "interview_count": 44
  },
  {
    "city": "El Dorado Hills",
    "state": "CA",
    "category": "User Generated",
    "lat": 38.67693123054133,
    "lon": -121.0575102902719,
    "interview_count": 44
  },
  {
    "city": "boston",
    "state": "MA",
    "category": "User Generated",
    "lat": 42.33513664489329,
    "lon": -71.08085243124081,
    "interview_count": 44
  },
  {
    "city": "Southfield",
    "state": "MI",
    "category": "User Generated",
    "lat": 42.48025329956072,
    "lon": -83.25993389020769,
    "interview_count": 44
  },
  {
    "city": "Lawrence",
    "state": "KS",
    "category": "User Generated",
    "lat": 38.951494768545466,
    "lon": -95.27590512176232,
    "interview_count": 44
  },
  {
    "city": "Torrance",
    "state": "CA",
    "category": "Signature",
    "lat": 33.83761330623442,
    "lon": -118.3367735900487,
    "interview_count": 44
  },
  {
    "city": "Charleston",
    "state": "IL",
    "category": "User Generated",
    "lat": 39.50407763611486,
    "lon": -88.1644547079858,
    "interview_count": 44
  },
  {
    "city": "Hawthorne",
    "state": "CA",
    "category": "User Generated",
    "lat": 33.91381210365756,
    "lon": -118.34995121249503,
    "interview_count": 43
  },
  {
    "city": "Fairbanks",
    "state": "AK",
    "category": "User Generated",
    "lat": 64.83541280737587,
    "lon": -147.62607884860145,
    "interview_count": 43
  },
  {
    "city": "berwyn",
    "state": "IL",
    "category": "User Generated",
    "lat": 41.83236860190132,
    "lon": -87.78983422483421,
    "interview_count": 43
  },
  {
    "city": "Cambridge",
    "state": "MA",
    "category": "Signature",
    "lat": 42.37375994394362,
    "lon": -71.10689071468595,
    "interview_count": 43
  },
  {
    "city": "State College",
    "state": "PA",
    "category": "User Generated",
    "lat": 40.79189800662138,
    "lon": -77.85357809171515,
    "interview_count": 43
  },
  {
    "city": "Winchester",
    "state": "VA",
    "category": "User Generated",
    "lat": 39.17428299761162,
    "lon": -78.1743188181628,
    "interview_count": 43
  },
  {
    "city": "bentonville",
    "state": "AR",
    "category": "User Generated",
    "lat": 36.34938170332845,
    "lon": -94.25281330625063,
    "interview_count": 43
  },
  {
    "city": "Wausau",
    "state": "WI",
    "category": "User Generated",
    "lat": 45.03141719310347,
    "lon": -89.5134809407051,
    "interview_count": 43
  },
  {
    "city": "River Edge",
    "state": "NJ",
    "category": "User Generated",
    "lat": 40.9268904343302,
    "lon": -74.03875008190356,
    "interview_count": 43
  },
  {
    "city": "New york",
    "state": "NY",
    "category": "User Generated",
    "lat": 40.72838682757115,
    "lon": -73.92327837787745,
    "interview_count": 43
  },
  {
    "city": "Castaic",
    "state": "CA",
    "category": "User Generated",
    "lat": 34.516032742698236,
    "lon": -118.67285117134615,
    "interview_count": 43
  },
  {
    "city": "Bayonne",
    "state": "NJ",
    "category": "User Generated",
    "lat": 40.66468062978787,
    "lon": -74.10933165359602,
    "interview_count": 43
  },
  {
    "city": "El Monte",
    "state": "CA",
    "category": "User Generated",
    "lat": 34.07578083191484,
    "lon": -118.02750712247384,
    "interview_count": 43
  },
  {
    "city": "Hartford",
    "state": "CT",
    "category": "User Generated",
    "lat": 41.78294138939624,
    "lon": -72.68242923031646,
    "interview_count": 43
  },
  {
    "city": "Loveland",
    "state": "CO",
    "category": "User Generated",
    "lat": 40.432401270416285,
    "lon": -105.18547027936911,
    "interview_count": 42
  },
  {
    "city": "Cornelius",
    "state": "NC",
    "category": "User Generated",
    "lat": 35.47538542009577,
    "lon": -80.8934318661974,
    "interview_count": 42
  },
  {
    "city": "Visalia",
    "state": "CA",
    "category": "User Generated",
    "lat": 36.35506526649934,
    "lon": -119.32387341914634,
    "interview_count": 42
  },
  {
    "city": "Canton",
    "state": "OH",
    "category": "User Generated",
    "lat": 40.805134900881626,
    "lon": -81.37614625145896,
    "interview_count": 42
  },
  {
    "city": "Baton Rouge",
    "state": "LA",
    "category": "User Generated",
    "lat": 30.44772464048183,
    "lon": -91.12825228677688,
    "interview_count": 42
  },
  {
    "city": "Newburyport",
    "state": "MA",
    "category": "User Generated",
    "lat": 42.81238020129345,
    "lon": -70.88784554491724,
    "interview_count": 42
  },
  {
    "city": "Massillon",
    "state": "OH",
    "category": "User Generated",
    "lat": 40.80297793335819,
    "lon": -81.53206450014419,
    "interview_count": 42
  },
  {
    "city": "dallas",
    "state": "TX",
    "category": "User Generated",
    "lat": 32.805500089319814,
    "lon": -96.79785358194775,
    "interview_count": 42
  },
  {
    "city": "Spearfish",
    "state": "SD",
    "category": "User Generated",
    "lat": 44.4957882427539,
    "lon": -103.79182485161239,
    "interview_count": 42
  },
  {
    "city": "Chattanooga",
    "state": "TN",
    "category": "User Generated",
    "lat": 35.05819212996578,
    "lon": -85.28311907225998,
    "interview_count": 42
  },
  {
    "city": "Walnut Creek",
    "state": "CA",
    "category": "User Generated",
    "lat": 37.8927947705063,
    "lon": -122.04009165446928,
    "interview_count": 41
  },
  {
    "city": "Kent",
    "state": "OH",
    "category": "User Generated",
    "lat": 41.14055561261514,
    "lon": -81.34141907362377,
    "interview_count": 41
  },
  {
    "city": "Bixby",
    "state": "OK",
    "category": "User Generated",
    "lat": 35.92614348751382,
    "lon": -95.87570245243285,
    "interview_count": 41
  },
  {
    "city": "Carrollton",
    "state": "TX",
    "category": "User Generated",
    "lat": 32.9990808009586,
    "lon": -96.89819975869392,
    "interview_count": 41
  },
  {
    "city": "Northville",
    "state": "MI",
    "category": "User Generated",
    "lat": 42.405592522702634,
    "lon": -83.54057108192825,
    "interview_count": 41
  },
  {
    "city": "Pasadena",
    "state": "TX",
    "category": "User Generated",
    "lat": 29.668064038933984,
    "lon": -95.1577274646165,
    "interview_count": 41
  },
  {
    "city": "Farmington",
    "state": "UT",
    "category": "User Generated",
    "lat": 40.976702311727664,
    "lon": -111.89873848299393,
    "interview_count": 41
  },
  {
    "city": "Worcester",
    "state": "MA",
    "category": "User Generated",
    "lat": 42.276918592326254,
    "lon": -71.7978801033349,
    "interview_count": 41
  },
  {
    "city": "Washington",
    "state": "MO",
    "category": "User Generated",
    "lat": 38.53175540077761,
    "lon": -91.05045838966895,
    "interview_count": 41
  },
  {
    "city": "Northampton",
    "state": "MA",
    "category": "User Generated",
    "lat": 42.328824814708135,
    "lon": -72.66838754791665,
    "interview_count": 41
  },
  {
    "city": "new york",
    "state": "NY",
    "category": "User Generated",
    "lat": 40.72838682757115,
    "lon": -73.92327837787745,
    "interview_count": 41
  },
  {
    "city": "Westfield",
    "state": "NJ",
    "category": "User Generated",
    "lat": 40.63617264344451,
    "lon": -74.32827287919554,
    "interview_count": 41
  },
  {
    "city": "Temecula",
    "state": "CA",
    "category": "User Generated",
    "lat": 33.50976526135303,
    "lon": -117.11804655394945,
    "interview_count": 41
  },
  {
    "city": "Suwanee",
    "state": "GA",
    "category": "User Generated",
    "lat": 34.063398155518044,
    "lon": -84.0911237138415,
    "interview_count": 41
  },
  {
    "city": "Lexington",
    "state": "KY",
    "category": "User Generated",
    "lat": 38.02830861632251,
    "lon": -84.49394511655179,
    "interview_count": 41
  },
  {
    "city": "Cleveland",
    "state": "OH",
    "category": "Signature",
    "lat": 41.494324516180654,
    "lon": -81.66576541544718,
    "interview_count": 41
  },
  {
    "city": "Richardson",
    "state": "TX",
    "category": "User Generated",
    "lat": 32.97187937992245,
    "lon": -96.70529442861192,
    "interview_count": 41
  },
  {
    "city": "atlanta",
    "state": "GA",
    "category": "User Generated",
    "lat": 33.76953504313203,
    "lon": -84.38535201533642,
    "interview_count": 40
  },
  {
    "city": "Charlottesville",
    "state": "VA",
    "category": "Signature",
    "lat": 38.02195230696776,
    "lon": -78.5306699254195,
    "interview_count": 40
  },